[
  {
    "id": "102020011",
    "name": "高雄市立聯合醫院",
    "area": "64000020",
    "address": "高雄市鼓山區龍水里中華一路976號",
    "phone": "(07)5552565",
    "latitude": "22.6549319",
    "longtitude": "120.2890053"
  },
  {
    "id": "102070020",
    "name": "高雄市立大同醫院",
    "area": "64000070",
    "address": "高雄市前金區中華三路68號",
    "phone": "(07)2911101",
    "latitude": "22.62699",
    "longtitude": "120.297205"
  },
  {
    "id": "102080017",
    "name": "高雄市立民生醫院",
    "area": "64000080",
    "address": "高雄市苓雅區凱旋二路134號",
    "phone": "(07)7511131",
    "latitude": "22.626491",
    "longtitude": "120.323736"
  },
  {
    "id": "102080026",
    "name": "高雄市立凱旋醫院",
    "area": "64000080",
    "address": "高雄市苓雅區凱旋二路130號",
    "phone": "(07)7513171",
    "latitude": "22.6251221",
    "longtitude": "120.3218433"
  },
  {
    "id": "142030019",
    "name": "衛生福利部旗山醫院",
    "area": "64000300",
    "address": "高雄市旗山區大德里中學路60號",
    "phone": "(07)6613811",
    "latitude": "22.880694",
    "longtitude": "120.483277"
  },
  {
    "id": "502030015",
    "name": "國軍高雄總醫院左營分院",
    "area": "64000030",
    "address": "高雄市左營區合群里軍校路553號",
    "phone": "(07)5811648",
    "latitude": "22.700352",
    "longtitude": "120.292231"
  },
  {
    "id": "502080015",
    "name": "國軍高雄總醫院附設民眾診療處",
    "area": "64000080",
    "address": "高雄市苓雅區建軍路5號",
    "phone": "(07)7496751",
    "latitude": "22.6259888",
    "longtitude": "120.3397398"
  },
  {
    "id": "542020011",
    "name": "國軍高雄總醫院岡山分院附設民眾診療服務處",
    "area": "64000190",
    "address": "高雄市岡山區大義二路1號",
    "phone": "(07)6250919",
    "latitude": "22.789456",
    "longtitude": "120.285874"
  },
  {
    "id": "602030026",
    "name": "高雄榮民總醫院",
    "area": "64000030",
    "address": "高雄市左營區福山里大中一路386號",
    "phone": "(07)3422121",
    "latitude": "22.677697",
    "longtitude": "120.322257"
  },
  {
    "id": "902080013",
    "name": "阮綜合醫療社團法人阮綜合醫院",
    "area": "64000080",
    "address": "高雄市苓雅區鼓中里成功一路162號",
    "phone": "(07)3351121",
    "latitude": "22.615583",
    "longtitude": "120.297377"
  },
  {
    "id": "907030013",
    "name": "廣聖醫療社團法人廣聖醫院",
    "area": "64000300",
    "address": "高雄市旗山區中華路618號",
    "phone": "(07)6622391",
    "latitude": "22.884981",
    "longtitude": "120.485444"
  },
  {
    "id": "907320012",
    "name": "愛仁醫療社團法人愛仁醫院",
    "area": "64000050",
    "address": "高雄市三民區民族一路51號",
    "phone": "(07)3115159",
    "latitude": "22.641817",
    "longtitude": "120.31384"
  },
  {
    "id": "907350010",
    "name": "乃榮醫療社團法人乃榮醫院",
    "area": "64000080",
    "address": "高雄市苓雅區三多二路226號",
    "phone": "(07)7613151",
    "latitude": "22.6187484",
    "longtitude": "120.3166033"
  },
  {
    "id": "942020019",
    "name": "高雄市立岡山醫院（委託秀傳醫療社團法人經營）",
    "area": "64000190",
    "address": "高雄市岡山區岡山里壽天路12號",
    "phone": "(07)6222131",
    "latitude": "22.796612",
    "longtitude": "120.294443"
  },
  {
    "id": "1102110011",
    "name": "高雄市立小港醫院(委託財團法人私立高雄醫學大學經營)",
    "area": "64000110",
    "address": "高雄市小港區山明里山明路482號",
    "phone": "(07)8036783",
    "latitude": "22.567467",
    "longtitude": "120.363369"
  },
  {
    "id": "1107120017",
    "name": "義大醫療財團法人義大癌治療醫院",
    "area": "64000210",
    "address": "高雄市燕巢區角宿里義大路21號",
    "phone": "(07)6150022",
    "latitude": "22.766469",
    "longtitude": "120.364783"
  },
  {
    "id": "1107320017",
    "name": "義大醫療財團法人義大大昌醫院",
    "area": "64000050",
    "address": "高雄市三民區大昌一路305號",
    "phone": "(07)6150011",
    "latitude": "22.6577272",
    "longtitude": "120.3180026"
  },
  {
    "id": "1107350015",
    "name": "天主教聖功醫療財團法人聖功醫院",
    "area": "64000080",
    "address": "高雄市苓雅區建國一路352號",
    "phone": "(07)2238153",
    "latitude": "22.633118",
    "longtitude": "120.323927"
  },
  {
    "id": "1142010518",
    "name": "高雄市立鳳山醫院",
    "area": "64000120",
    "address": "高雄市鳳山區經武路42號",
    "phone": "(07)7418151",
    "latitude": "22.628564",
    "longtitude": "120.363087"
  },
  {
    "id": "1142100017",
    "name": "長庚醫療財團法人高雄長庚紀念醫院",
    "area": "64000180",
    "address": "高雄市鳥松區鳥松里大埤路123號",
    "phone": "(07)7317123",
    "latitude": "22.649847",
    "longtitude": "120.356029"
  },
  {
    "id": "1142120001",
    "name": "義大醫療財團法人義大醫院",
    "area": "64000210",
    "address": "高雄市燕巢區角宿里義大路1號",
    "phone": "(07)6150011",
    "latitude": "22.765521",
    "longtitude": "120.364451"
  },
  {
    "id": "1202080029",
    "name": "信義醫院",
    "area": "64000080",
    "address": "高雄市苓雅區華新街86號",
    "phone": "(07)3321111",
    "latitude": "22.613969",
    "longtitude": "120.29642"
  },
  {
    "id": "1302050014",
    "name": "財團法人私立高雄醫學大學附設中和紀念醫院",
    "area": "64000050",
    "address": "高雄市三民區安生里自由一路100號",
    "phone": "(07)3121101",
    "latitude": "22.647122",
    "longtitude": "120.310169"
  },
  {
    "id": "1307370011",
    "name": "高雄市立旗津醫院",
    "area": "64000100",
    "address": "高雄市旗津區旗港路33號",
    "phone": "(07)5711188",
    "latitude": "22.59021",
    "longtitude": "120.285113"
  },
  {
    "id": "1442060014",
    "name": "財團法人台灣省私立高雄仁愛之家附設慈惠醫院",
    "area": "64000140",
    "address": "高雄市大寮區鳳屏一路509號",
    "phone": "(07)7030315",
    "latitude": "22.639236",
    "longtitude": "120.397505"
  },
  {
    "id": "1502020056",
    "name": "聖明醫院",
    "area": "64000020",
    "address": "高雄市鼓山區鼓山三路52號",
    "phone": "(07)5313755",
    "latitude": "22.655078",
    "longtitude": "120.275613"
  },
  {
    "id": "1502020065",
    "name": "正大醫院",
    "area": "64000020",
    "address": "高雄市鼓山區鼓山三路128-9號",
    "phone": "(07)5823989",
    "latitude": "22.663874",
    "longtitude": "120.27954"
  },
  {
    "id": "1502031095",
    "name": "馨蕙馨醫院",
    "area": "64000030",
    "address": "高雄市左營區明誠二路541號",
    "phone": "(07)5586080",
    "latitude": "22.66097",
    "longtitude": "120.303829"
  },
  {
    "id": "1502031102",
    "name": "柏仁醫院",
    "area": "64000030",
    "address": "高雄市左營區博愛二路350號",
    "phone": "(07)5508888",
    "latitude": "22.664342",
    "longtitude": "120.303632"
  },
  {
    "id": "1502040021",
    "name": "健仁醫院",
    "area": "64000040",
    "address": "高雄市楠梓區中陽里楠陽路136號",
    "phone": "(07)3517166",
    "latitude": "22.72362",
    "longtitude": "120.328988"
  },
  {
    "id": "1502040076",
    "name": "顏威裕醫院",
    "area": "64000040",
    "address": "高雄市楠梓區秀昌里後昌路826號",
    "phone": "(07)3639053",
    "latitude": "22.711168",
    "longtitude": "120.295692"
  },
  {
    "id": "1502041108",
    "name": "長春醫院",
    "area": "64000040",
    "address": "高雄市楠梓區右昌街331號",
    "phone": "(07)3612995",
    "latitude": "22.714272",
    "longtitude": "120.2891"
  },
  {
    "id": "1502041117",
    "name": "右昌聯合醫院",
    "area": "64000040",
    "address": "高雄市楠梓區軍校路930號",
    "phone": "(07)3643388",
    "latitude": "22.7138",
    "longtitude": "120.290879"
  },
  {
    "id": "1502050045",
    "name": "德謙醫院",
    "area": "64000050",
    "address": "高雄市三民區九如二路18號",
    "phone": "(07)3210981",
    "latitude": "22.640667",
    "longtitude": "120.313205"
  },
  {
    "id": "1502050152",
    "name": "南山醫院",
    "area": "64000050",
    "address": "高雄市三民區建東里建國三路151號",
    "phone": "(07)2882101",
    "latitude": "22.637671",
    "longtitude": "120.298535"
  },
  {
    "id": "1502050170",
    "name": "祐生醫院",
    "area": "64000050",
    "address": "高雄市三民區建國三路60號",
    "phone": "(07)2866688",
    "latitude": "22.637983",
    "longtitude": "120.296106"
  },
  {
    "id": "1502050241",
    "name": "民族醫院",
    "area": "64000050",
    "address": "高雄市三民區民族一路880號",
    "phone": "(07)3462802",
    "latitude": "22.668546",
    "longtitude": "120.317459"
  },
  {
    "id": "1502050296",
    "name": "文雄醫院",
    "area": "64000050",
    "address": "高雄市三民區察哈爾二街132號",
    "phone": "(07)3165275",
    "latitude": "22.64805",
    "longtitude": "120.299645"
  },
  {
    "id": "1502051364",
    "name": "全民醫院",
    "area": "64000050",
    "address": "高雄市三民區九如二路505號",
    "phone": "(07)3220066",
    "latitude": "22.641299",
    "longtitude": "120.298526"
  },
  {
    "id": "1502051426",
    "name": "四季台安醫院",
    "area": "64000050",
    "address": "高雄市三民區聯興路157號",
    "phone": "(07)3983000",
    "latitude": "22.659446",
    "longtitude": "120.313821"
  },
  {
    "id": "1502060014",
    "name": "蕭志文醫院",
    "area": "64000060",
    "address": "高雄市新興區七賢一路102號",
    "phone": "(07)2240252",
    "latitude": "22.633944",
    "longtitude": "120.314331"
  },
  {
    "id": "1502060149",
    "name": "惠仁醫院",
    "area": "64000060",
    "address": "高雄市新興區中山一路67-2號",
    "phone": "(07)2010196",
    "latitude": "22.6298265",
    "longtitude": "120.2992464"
  },
  {
    "id": "1502070029",
    "name": "重仁骨科醫院",
    "area": "64000070",
    "address": "高雄市前金區中華三路247號",
    "phone": "(07)2813136",
    "latitude": "22.63436",
    "longtitude": "120.293712"
  },
  {
    "id": "1502070118",
    "name": "健新醫院",
    "area": "64000070",
    "address": "高雄市前金區七賢二路295號",
    "phone": "(07)2613866",
    "latitude": "22.631322",
    "longtitude": "120.290835"
  },
  {
    "id": "1502081175",
    "name": "邱外科醫院",
    "area": "64000080",
    "address": "高雄市苓雅區成功一路137號",
    "phone": "(07)3364131",
    "latitude": "22.614662",
    "longtitude": "120.297305"
  },
  {
    "id": "1502090209",
    "name": "吳昆哲婦產小兒科醫院",
    "area": "64000090",
    "address": "高雄市前鎮區興東里民權二路430號",
    "phone": "(07)3319611",
    "latitude": "22.61208",
    "longtitude": "120.31439"
  },
  {
    "id": "1502110064",
    "name": "安泰醫院",
    "area": "64000110",
    "address": "高雄市小港區學府路111號",
    "phone": "(07)8017856",
    "latitude": "22.565234",
    "longtitude": "120.36143"
  },
  {
    "id": "1502111089",
    "name": "戴銘浚婦兒醫院",
    "area": "64000110",
    "address": "高雄市小港區宏平路661號",
    "phone": "(07)8061289",
    "latitude": "22.569572",
    "longtitude": "120.351192"
  },
  {
    "id": "1502111098",
    "name": "臨海醫院",
    "area": "64000110",
    "address": "高雄市小港區沿海一路461號",
    "phone": "(07)8012171",
    "latitude": "22.561682",
    "longtitude": "120.356927"
  },
  {
    "id": "1507290012",
    "name": "生安婦產小兒科醫院",
    "area": "64000020",
    "address": "高雄市鼓山區美術東二路177號",
    "phone": "(07)5223138",
    "latitude": "22.662316",
    "longtitude": "120.288311"
  },
  {
    "id": "1507300022",
    "name": "博愛蕙馨醫院",
    "area": "64000030",
    "address": "高雄市左營區博愛二路20號",
    "phone": "(07)8628880",
    "latitude": "22.656832",
    "longtitude": "120.303458"
  },
  {
    "id": "1507320015",
    "name": "新高醫院",
    "area": "64000050",
    "address": "高雄市三民區莊敬路288號",
    "phone": "(07)3828814",
    "latitude": "22.649991",
    "longtitude": "120.318257"
  },
  {
    "id": "1507360019",
    "name": "瑞祥醫院",
    "area": "64000090",
    "address": "高雄市前鎮區班超路92號",
    "phone": "(07)7717503",
    "latitude": "22.602633",
    "longtitude": "120.324938"
  },
  {
    "id": "1507360028",
    "name": "新正薪醫院",
    "area": "64000090",
    "address": "高雄市前鎮區一心一路233號1-4樓",
    "phone": "(07)9705335",
    "latitude": "22.607869",
    "longtitude": "120.317587"
  },
  {
    "id": "1542010052",
    "name": "大東醫院",
    "area": "64000120",
    "address": "高雄市鳳山區三民里光遠路171-2號",
    "phone": "(07)7463762",
    "latitude": "22.625359",
    "longtitude": "120.362012"
  },
  {
    "id": "1542010141",
    "name": "優生婦產小兒科醫院",
    "area": "64000120",
    "address": "高雄市鳳山區自由路189號",
    "phone": "(07)7478629",
    "latitude": "22.625567",
    "longtitude": "120.35099"
  },
  {
    "id": "1542011237",
    "name": "惠德醫院",
    "area": "64000120",
    "address": "高雄市鳳山區福祥街81號",
    "phone": "(07)8126000",
    "latitude": "22.592033",
    "longtitude": "120.325113"
  },
  {
    "id": "1542011282",
    "name": "杏和醫院",
    "area": "64000120",
    "address": "高雄市鳳山區五甲二路389、470號",
    "phone": "(07)7613111",
    "latitude": "22.593659",
    "longtitude": "120.328356"
  },
  {
    "id": "1542020058",
    "name": "劉嘉修醫院",
    "area": "64000190",
    "address": "高雄市岡山區岡山里岡山路428號",
    "phone": "(07)6222836",
    "latitude": "22.795756",
    "longtitude": "120.295867"
  },
  {
    "id": "1542020067",
    "name": "劉光雄醫院",
    "area": "64000190",
    "address": "高雄市岡山區岡山路380-1號",
    "phone": "(07)6219156",
    "latitude": "22.794195",
    "longtitude": "120.2937176"
  },
  {
    "id": "1542021171",
    "name": "惠川醫院",
    "area": "64000190",
    "address": "高雄市岡山區岡山路92號",
    "phone": "(07)6229292",
    "latitude": "22.787987",
    "longtitude": "120.296788"
  },
  {
    "id": "1542030018",
    "name": "重安醫院",
    "area": "64000300",
    "address": "高雄市旗山區大德里大仁街18號",
    "phone": "(07)6618471",
    "latitude": "22.883021",
    "longtitude": "120.484822"
  },
  {
    "id": "1542030063",
    "name": "博愛醫院",
    "area": "64000300",
    "address": "高雄市旗山區延平一路689號",
    "phone": "(07)6617602",
    "latitude": "22.883617",
    "longtitude": "120.483223"
  },
  {
    "id": "1542030116",
    "name": "溪洲醫院",
    "area": "64000300",
    "address": "高雄市旗山區延平一路412號",
    "phone": "(07)6621985",
    "latitude": "22.892772",
    "longtitude": "120.483167"
  },
  {
    "id": "1542040050",
    "name": "三聖醫院",
    "area": "64000310",
    "address": "高雄市美濃區合和路56號",
    "phone": "(07)6818495",
    "latitude": "22.894009",
    "longtitude": "120.54808"
  },
  {
    "id": "1542050056",
    "name": "建佑醫院",
    "area": "64000130",
    "address": "高雄市林園區廣應里東林西路360號",
    "phone": "(07)6437901",
    "latitude": "22.503845",
    "longtitude": "120.386635"
  },
  {
    "id": "1542051151",
    "name": "霖園醫院",
    "area": "64000130",
    "address": "高雄市林園區林園里林園北路244號",
    "phone": "(07)6413399",
    "latitude": "22.5089269",
    "longtitude": "120.3923897"
  },
  {
    "id": "1542061077",
    "name": "樂生婦幼專科醫院",
    "area": "64000140",
    "address": "高雄市大寮區永芳里鳳林三路532號",
    "phone": "(07)7862688",
    "latitude": "22.606815",
    "longtitude": "120.395585"
  },
  {
    "id": "1542061148",
    "name": "瑞生醫院",
    "area": "64000140",
    "address": "高雄市大寮區中興里鳳林四路192號",
    "phone": "(07)7835175",
    "latitude": "22.617691",
    "longtitude": "120.384874"
  },
  {
    "id": "1542110020",
    "name": "泰和醫院",
    "area": "64000200",
    "address": "高雄市橋頭區成功路101號",
    "phone": "(07)6111128",
    "latitude": "22.75876",
    "longtitude": "120.309606"
  },
  {
    "id": "1542140046",
    "name": "長佑醫院",
    "area": "64000230",
    "address": "高雄市阿蓮區清蓮里中山路150號",
    "phone": "(07)6311267",
    "latitude": "22.877576",
    "longtitude": "120.327731"
  },
  {
    "id": "1542150033",
    "name": "溫有諒醫院",
    "area": "64000240",
    "address": "高雄市路竹區竹南村延平路57號",
    "phone": "(07)6965136",
    "latitude": "22.857968",
    "longtitude": "120.258689"
  },
  {
    "id": "1542150042",
    "name": "高新醫院",
    "area": "64000240",
    "address": "高雄市路竹區中山路627號",
    "phone": "(07)6975903",
    "latitude": "22.865457",
    "longtitude": "120.257157"
  },
  {
    "id": "2342010013",
    "name": "高雄市鳳山區衛生所",
    "area": "64000120",
    "address": "高雄市鳳山區經武路34巷2號",
    "phone": "(07)7430437",
    "latitude": "22.627214",
    "longtitude": "120.363023"
  },
  {
    "id": "2342020019",
    "name": "高雄市岡山區衛生所",
    "area": "64000190",
    "address": "高雄市岡山區壽天路16-2號",
    "phone": "(07)6212015",
    "latitude": "22.7945964",
    "longtitude": "120.2890853"
  },
  {
    "id": "2342030015",
    "name": "高雄市旗山區衛生所",
    "area": "64000300",
    "address": "高雄市旗山區湄洲里中正路197號",
    "phone": "(07)6612054",
    "latitude": "22.889792",
    "longtitude": "120.479888"
  },
  {
    "id": "2342040011",
    "name": "高雄市美濃區衛生所",
    "area": "64000310",
    "address": "高雄市美濃區合和里美中路246號",
    "phone": "(07)6812064",
    "latitude": "22.895215",
    "longtitude": "120.541286"
  },
  {
    "id": "2342050017",
    "name": "高雄市林園區衛生所",
    "area": "64000130",
    "address": "高雄市林園區林園里林園北路186號",
    "phone": "(07)6412404",
    "latitude": "22.507665",
    "longtitude": "120.395238"
  },
  {
    "id": "2342060013",
    "name": "高雄市大寮區衛生所",
    "area": "64000140",
    "address": "高雄市大寮區進學路129巷2-1號",
    "phone": "(07)7811965",
    "latitude": "22.604532",
    "longtitude": "120.393595"
  },
  {
    "id": "2342070019",
    "name": "高雄市大樹區衛生所",
    "area": "64000150",
    "address": "高雄市大樹區中興北路120號",
    "phone": "(07)6512935",
    "latitude": "22.693326",
    "longtitude": "120.433045"
  },
  {
    "id": "2342080015",
    "name": "高雄市仁武區衛生所",
    "area": "64000170",
    "address": "高雄市仁武區地政街23號",
    "phone": "(07)3711434",
    "latitude": "22.700798",
    "longtitude": "120.351568"
  },
  {
    "id": "2342090011",
    "name": "高雄市大社區衛生所",
    "area": "64000160",
    "address": "高雄市大社區自強街7號",
    "phone": "(07)3511774",
    "latitude": "22.731046",
    "longtitude": "120.346833"
  },
  {
    "id": "2342100012",
    "name": "高雄市鳥松區衛生所",
    "area": "64000180",
    "address": "高雄市鳥松區鳥松里文前路文北巷1弄4號",
    "phone": "(07)7316404",
    "latitude": "22.663573",
    "longtitude": "120.3605968"
  },
  {
    "id": "2342110018",
    "name": "高雄市橋頭區衛生所",
    "area": "64000200",
    "address": "高雄市橋頭區隆豐北路5號",
    "phone": "(07)6113516",
    "latitude": "22.7515552",
    "longtitude": "120.3068786"
  },
  {
    "id": "2342120014",
    "name": "高雄市燕巢區衛生所",
    "area": "64000210",
    "address": "高雄市燕巢區南燕村中興路2號",
    "phone": "(07)6161148",
    "latitude": "22.79303",
    "longtitude": "120.361659"
  },
  {
    "id": "2342130010",
    "name": "高雄市田寮區衛生所",
    "area": "64000220",
    "address": "高雄市田寮區南安村崗北路32號",
    "phone": "(07)6361504",
    "latitude": "22.873012",
    "longtitude": "120.359378"
  },
  {
    "id": "2342140016",
    "name": "高雄市阿蓮區衛生所",
    "area": "64000230",
    "address": "高雄市阿蓮區民生路94-1號",
    "phone": "(07)6317141",
    "latitude": "22.882809",
    "longtitude": "120.327524"
  },
  {
    "id": "2342150012",
    "name": "高雄市路竹區衛生所",
    "area": "64000240",
    "address": "高雄市路竹區國昌路86巷22號",
    "phone": "(07)6962449",
    "latitude": "22.855301",
    "longtitude": "120.258937"
  },
  {
    "id": "2342160018",
    "name": "高雄市湖內區衛生所",
    "area": "64000250",
    "address": "高雄市湖內區湖中路203號",
    "phone": "(07)6993009",
    "latitude": "22.905245",
    "longtitude": "120.222385"
  },
  {
    "id": "2342170014",
    "name": "高雄市茄萣區衛生所",
    "area": "64000260",
    "address": "高雄市茄萣區濱海路二段1號",
    "phone": "(07)6989275",
    "latitude": "22.888198",
    "longtitude": "120.184994"
  },
  {
    "id": "2342180010",
    "name": "高雄市永安區衛生所",
    "area": "64000270",
    "address": "高雄市永安區永安里永安路26號",
    "phone": "(07)6912015",
    "latitude": "22.818792",
    "longtitude": "120.225366"
  },
  {
    "id": "2342190016",
    "name": "高雄市彌陀區衛生所",
    "area": "64000280",
    "address": "高雄市彌陀區中華路1巷5弄1號",
    "phone": "(07)6175307",
    "latitude": "22.782146",
    "longtitude": "120.250575"
  },
  {
    "id": "2342200017",
    "name": "高雄市梓官區衛生所",
    "area": "64000290",
    "address": "高雄市梓官區梓信里公館路45號",
    "phone": "(07)6103050",
    "latitude": "22.764651",
    "longtitude": "120.267641"
  },
  {
    "id": "2342210013",
    "name": "高雄市六龜區衛生所",
    "area": "64000320",
    "address": "高雄市六龜區六龜里民治路18號",
    "phone": "(07)6891244",
    "latitude": "22.9980939",
    "longtitude": "120.6311182"
  },
  {
    "id": "2342220019",
    "name": "高雄市甲仙區衛生所",
    "area": "64000330",
    "address": "高雄市甲仙區和安里中山路52號",
    "phone": "(07)6751029",
    "latitude": "23.083935",
    "longtitude": "120.587454"
  },
  {
    "id": "2342230015",
    "name": "高雄市杉林區衛生所",
    "area": "64000340",
    "address": "高雄市杉林區上平里上仙路93巷2號",
    "phone": "(07)6771319",
    "latitude": "22.976933",
    "longtitude": "120.538613"
  },
  {
    "id": "2342240011",
    "name": "高雄市內門區衛生所",
    "area": "64000350",
    "address": "高雄市內門區觀亭里16鄰中埔頭20號",
    "phone": "(07)6671088",
    "latitude": "22.9244272",
    "longtitude": "120.4516262"
  },
  {
    "id": "2342250017",
    "name": "高雄市茂林區衛生所",
    "area": "64000360",
    "address": "高雄市茂林區茂林里茂林巷8-4號",
    "phone": "(07)6801046",
    "latitude": "22.8863299",
    "longtitude": "120.6615183"
  },
  {
    "id": "2342260013",
    "name": "高雄市桃源區衛生所",
    "area": "64000370",
    "address": "高雄市桃源區桃源里南進巷188-1號",
    "phone": "(07)6861126",
    "latitude": "23.158454",
    "longtitude": "120.764176"
  },
  {
    "id": "2342270019",
    "name": "高雄市那瑪夏區衛生所",
    "area": "64000380",
    "address": "高雄市那瑪夏區瑪雅里6鄰平和巷252號",
    "phone": "(07)6701142",
    "latitude": "23.2381279",
    "longtitude": "120.6942523"
  },
  {
    "id": "2402020519",
    "name": "國立中山大學附設醫務室",
    "area": "64000020",
    "address": "高雄市鼓山區蓮海路70號",
    "phone": "(07)5250115",
    "latitude": "22.626461",
    "longtitude": "120.265991"
  },
  {
    "id": "2502090013",
    "name": "國軍高雄門診中心附設民眾診療服務處",
    "area": "64000090",
    "address": "高雄市前鎮區興東里光華二路51號",
    "phone": "(07)3344003",
    "latitude": "22.60993",
    "longtitude": "120.316794"
  },
  {
    "id": "2602040524",
    "name": "國軍退除役官兵輔導委員會高雄榮譽國民之家醫務室",
    "area": "64000040",
    "address": "高雄市楠梓區加昌路631號",
    "phone": "(07)3652828",
    "latitude": "22.716397",
    "longtitude": "120.302349"
  },
  {
    "id": "2642120010",
    "name": "國軍退除役官兵輔導委員會岡山榮譽國民之家",
    "area": "64000210",
    "address": "高雄市燕巢區安招里成功路1號",
    "phone": "(07)6161214",
    "latitude": "22.786321",
    "longtitude": "120.362099"
  },
  {
    "id": "2702040071",
    "name": "台灣中油股份有限公司煉製事業部國光聯合診所",
    "area": "64000040",
    "address": "高雄市楠梓區後昌路546巷2號",
    "phone": "(07)5824141",
    "latitude": "22.708342",
    "longtitude": "120.2988343"
  },
  {
    "id": "3502010187",
    "name": "木雄婦產科診所",
    "area": "64000010",
    "address": "高雄市鹽埕區大禮街60號",
    "phone": "(07)5618121",
    "latitude": "22.622187",
    "longtitude": "120.28767"
  },
  {
    "id": "3502010329",
    "name": "劉應炎診所",
    "area": "64000010",
    "address": "高雄市鹽埕區大公路98、100號",
    "phone": "(07)5511051",
    "latitude": "22.627753",
    "longtitude": "120.282125"
  },
  {
    "id": "3502010427",
    "name": "施家庭醫學科診所",
    "area": "64000010",
    "address": "高雄市鹽埕區新興街118號",
    "phone": "(07)5324460",
    "latitude": "22.627066",
    "longtitude": "120.282072"
  },
  {
    "id": "3502010463",
    "name": "盧榮坤小兒科診所",
    "area": "64000010",
    "address": "高雄市鹽埕區莒光街137號",
    "phone": "(07)5315657",
    "latitude": "22.622795",
    "longtitude": "120.284122"
  },
  {
    "id": "3502010507",
    "name": "汪昇勳耳鼻喉科診所",
    "area": "64000010",
    "address": "高雄市鹽埕區瀨南街225-1號",
    "phone": "(07)5216655",
    "latitude": "22.628023",
    "longtitude": "120.284116"
  },
  {
    "id": "3502020183",
    "name": "鼎新診所",
    "area": "64000020",
    "address": "高雄市鼓山區鼓波街42-11號",
    "phone": "(07)5512013",
    "latitude": "22.622233",
    "longtitude": "120.271651"
  },
  {
    "id": "3502020254",
    "name": "柯文良小兒科診所",
    "area": "64000020",
    "address": "高雄市鼓山區華榮路352號",
    "phone": "(07)5535760",
    "latitude": "22.667704",
    "longtitude": "120.296152"
  },
  {
    "id": "3502020316",
    "name": "家安診所",
    "area": "64000020",
    "address": "高雄市鼓山區明誠里裕誠路1515號",
    "phone": "(07)5541515",
    "latitude": "22.664864",
    "longtitude": "120.295185"
  },
  {
    "id": "3502020423",
    "name": "謝加晉診所",
    "area": "64000020",
    "address": "高雄市鼓山區民利街1號1樓",
    "phone": "(07)5532526",
    "latitude": "22.66132",
    "longtitude": "120.294996"
  },
  {
    "id": "3502020503",
    "name": "建元診所",
    "area": "64000020",
    "address": "高雄市鼓山區裕誠路1143、1145號",
    "phone": "(07)5543957",
    "latitude": "22.665634",
    "longtitude": "120.297679"
  },
  {
    "id": "3502020549",
    "name": "腎美診所",
    "area": "64000020",
    "address": "高雄市鼓山區中華一路336號1樓",
    "phone": "(07)5544900",
    "latitude": "22.664309",
    "longtitude": "120.292173"
  },
  {
    "id": "3502021635",
    "name": "明誠聯合診所",
    "area": "64000020",
    "address": "高雄市鼓山區中華一路310號",
    "phone": "(07)5538665",
    "latitude": "22.665633",
    "longtitude": "120.291402"
  },
  {
    "id": "3502021733",
    "name": "祐琳小兒科診所",
    "area": "64000020",
    "address": "高雄市鼓山區裕誠路1180號",
    "phone": "(07)5551870",
    "latitude": "22.666021",
    "longtitude": "120.297486"
  },
  {
    "id": "3502021760",
    "name": "容婦產科診所",
    "area": "64000020",
    "address": "高雄市鼓山區明誠三路487號",
    "phone": "(07)5541000",
    "latitude": "22.660985",
    "longtitude": "120.300473"
  },
  {
    "id": "3502022114",
    "name": "祐安小兒科診所",
    "area": "64000020",
    "address": "高雄市鼓山區九如四路1410號",
    "phone": "(07)5318616",
    "latitude": "22.658201",
    "longtitude": "120.279276"
  },
  {
    "id": "3502022150",
    "name": "建生診所",
    "area": "64000020",
    "address": "高雄市鼓山區美術東四路325號",
    "phone": "(07)5555366",
    "latitude": "22.660824",
    "longtitude": "120.290101"
  },
  {
    "id": "3502022203",
    "name": "吳展名診所",
    "area": "64000020",
    "address": "高雄市鼓山區明誠三路598號",
    "phone": "(07)5535658",
    "latitude": "22.661335",
    "longtitude": "120.297421"
  },
  {
    "id": "3502022230",
    "name": "鄭廣仁小兒科診所",
    "area": "64000020",
    "address": "高雄市鼓山區華榮路207號",
    "phone": "(07)5555350",
    "latitude": "22.665539",
    "longtitude": "120.296746"
  },
  {
    "id": "3502030036",
    "name": "田源診所",
    "area": "64000030",
    "address": "高雄市左營區政德路230號",
    "phone": "(07)3432641",
    "latitude": "22.677223",
    "longtitude": "120.30024"
  },
  {
    "id": "3502030072",
    "name": "德仁診所",
    "area": "64000030",
    "address": "高雄市左營區勝利路190號",
    "phone": "(07)5819228",
    "latitude": "22.681579",
    "longtitude": "120.288604"
  },
  {
    "id": "3502030143",
    "name": "吳光男小兒科內科診所",
    "area": "64000030",
    "address": "高雄市左營區?後街19號",
    "phone": "(07)5812871",
    "latitude": "22.684174",
    "longtitude": "120.288136"
  },
  {
    "id": "3502030189",
    "name": "胡義祥內兒科診所",
    "area": "64000030",
    "address": "高雄市左營區左營大路85號",
    "phone": "(07)5826811",
    "latitude": "22.682462",
    "longtitude": "120.288194"
  },
  {
    "id": "3502030385",
    "name": "馬遠成診所",
    "area": "64000030",
    "address": "高雄市左營區果峰街2巷2號3號1樓",
    "phone": "(07)5832348",
    "latitude": "22.670464",
    "longtitude": "120.289197"
  },
  {
    "id": "3502030474",
    "name": "傳家家庭醫學科診所",
    "area": "64000030",
    "address": "高雄市左營區裕誠路265號",
    "phone": "(07)5587919",
    "latitude": "22.664699",
    "longtitude": "120.309159"
  },
  {
    "id": "3502030483",
    "name": "蔡鶴峰診所",
    "area": "64000030",
    "address": "高雄市左營區後昌路601號",
    "phone": "(07)3661818",
    "latitude": "22.707707",
    "longtitude": "120.29952"
  },
  {
    "id": "3502030616",
    "name": "長安診所",
    "area": "64000030",
    "address": "高雄市左營區左營大路253號1樓",
    "phone": "(07)5821864",
    "latitude": "22.686183",
    "longtitude": "120.290476"
  },
  {
    "id": "3502030643",
    "name": "黃昭文診所",
    "area": "64000030",
    "address": "高雄市左營區自由二路255號",
    "phone": "(07)5592289",
    "latitude": "22.6624537",
    "longtitude": "120.3059872"
  },
  {
    "id": "3502030723",
    "name": "楊宜璋耳鼻喉科診所",
    "area": "64000030",
    "address": "高雄市左營區明誠二路362號",
    "phone": "(07)5591007",
    "latitude": "22.66125",
    "longtitude": "120.307228"
  },
  {
    "id": "3502030750",
    "name": "沈嘉充診所",
    "area": "64000030",
    "address": "高雄市左營區中華一路5號",
    "phone": "(07)5851778",
    "latitude": "22.669611",
    "longtitude": "120.2846577"
  },
  {
    "id": "3502030876",
    "name": "李建中診所",
    "area": "64000030",
    "address": "高雄市左營區崇德路238號",
    "phone": "(07)3498018",
    "latitude": "22.675255",
    "longtitude": "120.304748"
  },
  {
    "id": "3502030947",
    "name": "國聖診所",
    "area": "64000030",
    "address": "高雄市左營區文慈路150號",
    "phone": "(07)3506203",
    "latitude": "22.681833",
    "longtitude": "120.318117"
  },
  {
    "id": "3502032110",
    "name": "張簡耳鼻喉科診所",
    "area": "64000030",
    "address": "高雄市左營區自由三路300號",
    "phone": "(07)3454185",
    "latitude": "22.674069",
    "longtitude": "120.312325"
  },
  {
    "id": "3502032192",
    "name": "金仁福診所",
    "area": "64000030",
    "address": "高雄市左營區華夏路228號",
    "phone": "(07)5529843",
    "latitude": "22.669937",
    "longtitude": "120.296711"
  },
  {
    "id": "3502032227",
    "name": "李凱斌小兒科診所",
    "area": "64000030",
    "address": "高雄市左營區文莊路53號",
    "phone": "(07)3454784",
    "latitude": "22.6774015",
    "longtitude": "120.3099618"
  },
  {
    "id": "3502032316",
    "name": "王欽程診所",
    "area": "64000030",
    "address": "高雄市左營區華夏路1141號",
    "phone": "(07)3491111",
    "latitude": "22.6843709",
    "longtitude": "120.3068563"
  },
  {
    "id": "3502032325",
    "name": "華夏診所",
    "area": "64000030",
    "address": "高雄市左營區華夏路708號1樓",
    "phone": "(07)3453961",
    "latitude": "22.6779064",
    "longtitude": "120.3000826"
  },
  {
    "id": "3502032432",
    "name": "薛智峰耳鼻喉科診所",
    "area": "64000030",
    "address": "高雄市左營區新光里華夏路703號",
    "phone": "(07)3439190",
    "latitude": "22.678188",
    "longtitude": "120.302074"
  },
  {
    "id": "3502032585",
    "name": "李錦源小兒診所",
    "area": "64000030",
    "address": "高雄市左營區左營大路139-1號",
    "phone": "(07)5851188",
    "latitude": "22.683901",
    "longtitude": "120.288975"
  },
  {
    "id": "3502032594",
    "name": "陳進成診所",
    "area": "64000030",
    "address": "高雄市左營區華夏路985號1樓",
    "phone": "(07)3503387",
    "latitude": "22.681534",
    "longtitude": "120.305338"
  },
  {
    "id": "3502032610",
    "name": "乃聖診所",
    "area": "64000030",
    "address": "高雄市左營區文強路232號1樓",
    "phone": "(07)3500041",
    "latitude": "22.676876",
    "longtitude": "120.307728"
  },
  {
    "id": "3502032638",
    "name": "王津勝小兒科診所",
    "area": "64000030",
    "address": "高雄市左營區華夏路260號",
    "phone": "(07)5533243",
    "latitude": "22.670616",
    "longtitude": "120.297122"
  },
  {
    "id": "3502032656",
    "name": "吉祥診所",
    "area": "64000030",
    "address": "高雄市左營區翠華路601巷75號",
    "phone": "(07)5810757",
    "latitude": "22.672416",
    "longtitude": "120.289568"
  },
  {
    "id": "3502032781",
    "name": "晨田耳鼻喉科診所",
    "area": "64000030",
    "address": "高雄市左營區福山里榮佑路41號",
    "phone": "(07)3508893",
    "latitude": "22.681703",
    "longtitude": "120.320644"
  },
  {
    "id": "3502032790",
    "name": "康澤小兒科診所",
    "area": "64000030",
    "address": "高雄市左營區自由三路382號1樓",
    "phone": "(07)3453356",
    "latitude": "22.674981",
    "longtitude": "120.31259"
  },
  {
    "id": "3502032861",
    "name": "陳俊男診所",
    "area": "64000030",
    "address": "高雄市左營區自由二路216號1樓",
    "phone": "(07)5506531",
    "latitude": "22.66383",
    "longtitude": "120.308519"
  },
  {
    "id": "3502032889",
    "name": "李全忠診所",
    "area": "64000030",
    "address": "高雄市左營區自由三路528號",
    "phone": "(07)3450696",
    "latitude": "22.678381",
    "longtitude": "120.313592"
  },
  {
    "id": "3502032941",
    "name": "龔晉賢內科診所",
    "area": "64000030",
    "address": "高雄市左營區左營大路514-6號",
    "phone": "(07)5887903",
    "latitude": "22.689394",
    "longtitude": "120.29552"
  },
  {
    "id": "3502033082",
    "name": "恩欣小兒科診所",
    "area": "64000030",
    "address": "高雄市左營區自由四路324號",
    "phone": "(07)3451966",
    "latitude": "22.684915",
    "longtitude": "120.316579"
  },
  {
    "id": "3502033297",
    "name": "福山診所",
    "area": "64000030",
    "address": "高雄市左營區重愛路218號1樓",
    "phone": "(07)3482323",
    "latitude": "22.685597",
    "longtitude": "120.315601"
  },
  {
    "id": "3502033304",
    "name": "永霖小兒科診所",
    "area": "64000030",
    "address": "高雄市左營區孟子路415號1樓",
    "phone": "(07)3498118",
    "latitude": "22.6755",
    "longtitude": "120.307684"
  },
  {
    "id": "3502033313",
    "name": "裕生診所",
    "area": "64000030",
    "address": "高雄市左營區富民路342號2樓",
    "phone": "(07)5563707",
    "latitude": "22.664258",
    "longtitude": "120.305286"
  },
  {
    "id": "3502033329",
    "name": "陳信旭小兒科診所",
    "area": "64000030",
    "address": "高雄市左營區明華一路156號1樓",
    "phone": "(07)5590256",
    "latitude": "22.6629192",
    "longtitude": "120.3048375"
  },
  {
    "id": "3502033420",
    "name": "富誠診所",
    "area": "64000030",
    "address": "高雄市左營區富國路355號",
    "phone": "(07)5560925",
    "latitude": "22.666859",
    "longtitude": "120.307305"
  },
  {
    "id": "3502033573",
    "name": "楊東穎診所",
    "area": "64000030",
    "address": "高雄市左營區自由三路327號1樓",
    "phone": "(07)3505726",
    "latitude": "22.674198",
    "longtitude": "120.311865"
  },
  {
    "id": "3502040078",
    "name": "歐慈德內科診所",
    "area": "64000040",
    "address": "高雄市楠梓區後昌路915號",
    "phone": "(07)3633900",
    "latitude": "22.71339",
    "longtitude": "120.293728"
  },
  {
    "id": "3502040238",
    "name": "楊煌榮內兒科診所",
    "area": "64000040",
    "address": "高雄市楠梓區加昌路972號",
    "phone": "(07)3618293",
    "latitude": "22.71306",
    "longtitude": "120.290574"
  },
  {
    "id": "3502040309",
    "name": "宏生診所",
    "area": "64000040",
    "address": "高雄市楠梓區樂群路179巷2號",
    "phone": "(07)3619412",
    "latitude": "22.718957",
    "longtitude": "120.296716"
  },
  {
    "id": "3502040390",
    "name": "康健軍診所",
    "area": "64000040",
    "address": "高雄市楠梓區後昌路799號",
    "phone": "(07)3614685",
    "latitude": "22.710652",
    "longtitude": "120.295556"
  },
  {
    "id": "3502040434",
    "name": "苑秉純診所",
    "area": "64000040",
    "address": "高雄市楠梓區軍校路792號",
    "phone": "(07)3645885",
    "latitude": "22.709847",
    "longtitude": "120.293029"
  },
  {
    "id": "3502040550",
    "name": "宏育診所",
    "area": "64000040",
    "address": "高雄市楠梓區樂群路241號",
    "phone": "(07)3655331",
    "latitude": "22.72058",
    "longtitude": "120.296127"
  },
  {
    "id": "3502040578",
    "name": "健安診所",
    "area": "64000040",
    "address": "高雄市楠梓區岳陽街53號",
    "phone": "(07)3529801",
    "latitude": "22.729749",
    "longtitude": "120.3285023"
  },
  {
    "id": "3502040596",
    "name": "高耿耀診所",
    "area": "64000040",
    "address": "高雄市楠梓區建楠路179號",
    "phone": "(07)3529803",
    "latitude": "22.726808",
    "longtitude": "120.3236223"
  },
  {
    "id": "3502040649",
    "name": "楊雲志診所",
    "area": "64000040",
    "address": "高雄市楠梓區軍校路676號",
    "phone": "(07)3643826",
    "latitude": "22.707155",
    "longtitude": "120.293047"
  },
  {
    "id": "3502040667",
    "name": "陳顯明診所",
    "area": "64000040",
    "address": "高雄市楠梓區德賢路265號",
    "phone": "(07)3648127",
    "latitude": "22.726114",
    "longtitude": "120.303945"
  },
  {
    "id": "3502040685",
    "name": "康東原診所",
    "area": "64000040",
    "address": "高雄市楠梓區右昌街376號",
    "phone": "(07)3610115",
    "latitude": "22.715042",
    "longtitude": "120.28898"
  },
  {
    "id": "3502040738",
    "name": "常德診所",
    "area": "64000040",
    "address": "高雄市楠梓區常德路331號",
    "phone": "(07)3537431",
    "latitude": "22.737471",
    "longtitude": "120.337161"
  },
  {
    "id": "3502040809",
    "name": "聖昌診所",
    "area": "64000040",
    "address": "高雄市楠梓區後昌路773號",
    "phone": "(07)3639666",
    "latitude": "22.710221",
    "longtitude": "120.295993"
  },
  {
    "id": "3502040818",
    "name": "佑強診所",
    "area": "64000040",
    "address": "高雄市楠梓區德民路908號",
    "phone": "(07)3683690",
    "latitude": "22.72131",
    "longtitude": "120.28959"
  },
  {
    "id": "3502041860",
    "name": "孫欲珍小兒科家庭醫學科診所",
    "area": "64000040",
    "address": "高雄市楠梓區德賢路241號",
    "phone": "(07)3613709",
    "latitude": "22.7264441",
    "longtitude": "120.3051886"
  },
  {
    "id": "3502041888",
    "name": "祥霖診所",
    "area": "64000040",
    "address": "高雄市楠梓區德賢路530巷9號",
    "phone": "(07)3630930",
    "latitude": "22.726402",
    "longtitude": "120.301729"
  },
  {
    "id": "3502041913",
    "name": "周祖佑小兒科診所",
    "area": "64000040",
    "address": "高雄市楠梓區楠梓新路255號",
    "phone": "(07)3531266",
    "latitude": "22.728529",
    "longtitude": "120.325931"
  },
  {
    "id": "3502041977",
    "name": "冠全診所",
    "area": "64000040",
    "address": "高雄市楠梓區德民路1002-12號",
    "phone": "(07)3602123",
    "latitude": "22.720299",
    "longtitude": "120.287652"
  },
  {
    "id": "3502042036",
    "name": "仁安診所",
    "area": "64000040",
    "address": "高雄市楠梓區後昌路1165號",
    "phone": "(07)3684128",
    "latitude": "22.717288",
    "longtitude": "120.29093"
  },
  {
    "id": "3502042054",
    "name": "杏生婦產科診所",
    "area": "64000040",
    "address": "高雄市楠梓區德民路290號",
    "phone": "(07)3658288",
    "latitude": "22.725964",
    "longtitude": "120.307495"
  },
  {
    "id": "3502042223",
    "name": "王建安小兒科診所",
    "area": "64000040",
    "address": "高雄市楠梓區德民路949號",
    "phone": "(07)3600680",
    "latitude": "22.720534",
    "longtitude": "120.289114"
  },
  {
    "id": "3502042248",
    "name": "廣佑安診所",
    "area": "64000040",
    "address": "高雄市楠梓區後昌路678號",
    "phone": "(07)3605998",
    "latitude": "22.709023",
    "longtitude": "120.297772"
  },
  {
    "id": "3502042269",
    "name": "健康家庭醫學診所",
    "area": "64000040",
    "address": "高雄市楠梓區清豐二路86號",
    "phone": "(07)3535296",
    "latitude": "22.737477",
    "longtitude": "120.330894"
  },
  {
    "id": "3502042296",
    "name": "長義診所",
    "area": "64000040",
    "address": "高雄市楠梓區惠民路46號",
    "phone": "(07)3640553",
    "latitude": "22.724916",
    "longtitude": "120.298573"
  },
  {
    "id": "3502042312",
    "name": "家福耳鼻喉科診所",
    "area": "64000040",
    "address": "高雄市楠梓區後昌新路15號",
    "phone": "(07)3609988",
    "latitude": "22.718476",
    "longtitude": "120.291688"
  },
  {
    "id": "3502050378",
    "name": "董金山診所",
    "area": "64000050",
    "address": "高雄市三民區大昌二路544號",
    "phone": "(07)3833405",
    "latitude": "22.651829",
    "longtitude": "120.33018"
  },
  {
    "id": "3502051080",
    "name": "李坤泰診所",
    "area": "64000050",
    "address": "高雄市三民區覺民路186號",
    "phone": "(07)3833282",
    "latitude": "22.639587",
    "longtitude": "120.340243"
  },
  {
    "id": "3502051133",
    "name": "黃義霖診所",
    "area": "64000050",
    "address": "高雄市三民區澄和路6號",
    "phone": "(07)3857422",
    "latitude": "22.6444657",
    "longtitude": "120.3437963"
  },
  {
    "id": "3502051348",
    "name": "曾繁英診所",
    "area": "64000050",
    "address": "高雄市三民區自立一路267號",
    "phone": "(07)3111048",
    "latitude": "22.64239",
    "longtitude": "120.296066"
  },
  {
    "id": "3502051375",
    "name": "蕭瑞榮小兒科診所",
    "area": "64000050",
    "address": "高雄市三民區建工路531、533號",
    "phone": "(07)3867121",
    "latitude": "22.647856",
    "longtitude": "120.315414"
  },
  {
    "id": "3502051428",
    "name": "張倉銓診所",
    "area": "64000050",
    "address": "高雄市三民區大順二路183號",
    "phone": "(07)3808538",
    "latitude": "22.642945",
    "longtitude": "120.326431"
  },
  {
    "id": "3502051544",
    "name": "莊永昌診所",
    "area": "64000050",
    "address": "高雄市三民區建工路332號",
    "phone": "(07)3922289",
    "latitude": "22.653186",
    "longtitude": "120.33067"
  },
  {
    "id": "3502051599",
    "name": "徐樹本小兒科診所",
    "area": "64000050",
    "address": "高雄市三民區建興路373號",
    "phone": "(07)3867833",
    "latitude": "22.646792",
    "longtitude": "120.32215"
  },
  {
    "id": "3502051642",
    "name": "羅韻珊小兒科診所",
    "area": "64000050",
    "address": "高雄市三民區寶興里大豐二路110-1號1樓",
    "phone": "(07)3870430",
    "latitude": "22.64583",
    "longtitude": "120.328851"
  },
  {
    "id": "3502051955",
    "name": "胡榿小兒科診所",
    "area": "64000050",
    "address": "高雄市三民區九如一路820號",
    "phone": "(07)3827356",
    "latitude": "22.640161",
    "longtitude": "120.31949"
  },
  {
    "id": "3502052121",
    "name": "王俊仁耳鼻喉科診所",
    "area": "64000050",
    "address": "高雄市三民區陽明路416號",
    "phone": "(07)3959039",
    "latitude": "22.646237",
    "longtitude": "120.34295"
  },
  {
    "id": "3502052130",
    "name": "振祐診所",
    "area": "64000050",
    "address": "高雄市三民區大豐二路154號",
    "phone": "(07)3805909",
    "latitude": "22.64551",
    "longtitude": "120.330751"
  },
  {
    "id": "3502052149",
    "name": "王婦產科診所",
    "area": "64000050",
    "address": "高雄市三民區九如一路440號",
    "phone": "(07)3873979",
    "latitude": "22.638969",
    "longtitude": "120.330132"
  },
  {
    "id": "3502052274",
    "name": "醫鼎診所",
    "area": "64000050",
    "address": "高雄市三民區裕誠路101號",
    "phone": "(07)3506789",
    "latitude": "22.66368",
    "longtitude": "120.313681"
  },
  {
    "id": "3502052292",
    "name": "王漢卿小兒科診所",
    "area": "64000050",
    "address": "高雄市三民區陽明路132號",
    "phone": "(07)3877918",
    "latitude": "22.640579",
    "longtitude": "120.341836"
  },
  {
    "id": "3502052498",
    "name": "范雅修小兒科診所",
    "area": "64000050",
    "address": "高雄市三民區平等路163號",
    "phone": "(07)3876366",
    "latitude": "22.64219",
    "longtitude": "120.320831"
  },
  {
    "id": "3502052523",
    "name": "吉星小兒科診所",
    "area": "64000050",
    "address": "高雄市三民區天祥一路135-1號",
    "phone": "(07)3487936",
    "latitude": "22.667208",
    "longtitude": "120.320051"
  },
  {
    "id": "3502052694",
    "name": "育明診所",
    "area": "64000050",
    "address": "高雄市三民區民族一路537號",
    "phone": "(07)3478461",
    "latitude": "22.666021",
    "longtitude": "120.31634"
  },
  {
    "id": "3502052729",
    "name": "開元診所",
    "area": "64000050",
    "address": "高雄市三民區陽明路21號",
    "phone": "(07)3873595",
    "latitude": "22.637622",
    "longtitude": "120.340878"
  },
  {
    "id": "3502053904",
    "name": "許聰騰診所",
    "area": "64000050",
    "address": "高雄市三民區大昌二路100號",
    "phone": "(07)3981023",
    "latitude": "22.642898",
    "longtitude": "120.332316"
  },
  {
    "id": "3502054250",
    "name": "黃學武家醫科診所",
    "area": "64000050",
    "address": "高雄市三民區大昌二路23號",
    "phone": "(07)3815668",
    "latitude": "22.639288",
    "longtitude": "120.332066"
  },
  {
    "id": "3502054296",
    "name": "長清診所",
    "area": "64000050",
    "address": "高雄市三民區九如一路135號",
    "phone": "(07)3851441",
    "latitude": "22.636691",
    "longtitude": "120.3405"
  },
  {
    "id": "3502054527",
    "name": "黃志維耳鼻喉科診所",
    "area": "64000050",
    "address": "高雄市三民區建工路608號",
    "phone": "(07)3947605",
    "latitude": "22.649477",
    "longtitude": "120.323138"
  },
  {
    "id": "3502054536",
    "name": "茂田診所",
    "area": "64000050",
    "address": "高雄市三民區明誠一路236號",
    "phone": "(07)3109506",
    "latitude": "22.659898",
    "longtitude": "120.326039"
  },
  {
    "id": "3502054652",
    "name": "高鳳診所",
    "area": "64000050",
    "address": "高雄市三民區灣中街328號",
    "phone": "(07)3865481",
    "latitude": "22.649971",
    "longtitude": "120.317952"
  },
  {
    "id": "3502054698",
    "name": "德恩內科診所",
    "area": "64000050",
    "address": "高雄市三民區民族一路390號",
    "phone": "(07)3958282",
    "latitude": "22.652779",
    "longtitude": "120.315468"
  },
  {
    "id": "3502054929",
    "name": "承安耳鼻喉科診所",
    "area": "64000050",
    "address": "高雄市三民區力行路250號",
    "phone": "(07)3160789",
    "latitude": "22.638179",
    "longtitude": "120.286393"
  },
  {
    "id": "3502055024",
    "name": "蔡智禮診所",
    "area": "64000050",
    "address": "高雄市三民區北平一街132號",
    "phone": "(07)3225728",
    "latitude": "22.650209",
    "longtitude": "120.305056"
  },
  {
    "id": "3502055211",
    "name": "明陽診所",
    "area": "64000050",
    "address": "高雄市三民區陽明路65號",
    "phone": "(07)3963488",
    "latitude": "22.638967",
    "longtitude": "120.341106"
  },
  {
    "id": "3502055275",
    "name": "明榮診所",
    "area": "64000050",
    "address": "高雄市三民區熱河一街370號",
    "phone": "(07)3222875",
    "latitude": "22.64395",
    "longtitude": "120.305816"
  },
  {
    "id": "3502055293",
    "name": "元成診所",
    "area": "64000050",
    "address": "高雄市三民區陽明路81號",
    "phone": "(07)3903808",
    "latitude": "22.639694",
    "longtitude": "120.341262"
  },
  {
    "id": "3502055389",
    "name": "禾泰診所",
    "area": "64000050",
    "address": "高雄市三民區陽明路68號",
    "phone": "(07)3903812",
    "latitude": "22.639506",
    "longtitude": "120.341623"
  },
  {
    "id": "3502055499",
    "name": "偉倫小兒科診所",
    "area": "64000050",
    "address": "高雄市三民區鼎山街256號",
    "phone": "(07)3800333",
    "latitude": "22.659671",
    "longtitude": "120.321716"
  },
  {
    "id": "3502060070",
    "name": "瑞益內兒科診所",
    "area": "64000060",
    "address": "高雄市新興區復興二路107號",
    "phone": "(07)2312901",
    "latitude": "22.62276",
    "longtitude": "120.309137"
  },
  {
    "id": "3502060150",
    "name": "葉英鏘診所",
    "area": "64000060",
    "address": "高雄市新興區洛陽街1號",
    "phone": "(07)2387871",
    "latitude": "22.632684",
    "longtitude": "120.309031"
  },
  {
    "id": "3502060534",
    "name": "紀耳鼻喉科診所",
    "area": "64000060",
    "address": "高雄市新興區林森一路154-1號",
    "phone": "(07)2719087",
    "latitude": "22.629749",
    "longtitude": "120.304734"
  },
  {
    "id": "3502060632",
    "name": "展華內兒科診所",
    "area": "64000060",
    "address": "高雄市新興區八德一路182號",
    "phone": "(07)2386222",
    "latitude": "22.635708",
    "longtitude": "120.308704"
  },
  {
    "id": "3502061139",
    "name": "毛重富耳鼻喉科診所",
    "area": "64000060",
    "address": "高雄市新興區復興一路107-1號",
    "phone": "(07)2350168",
    "latitude": "22.6328768",
    "longtitude": "120.3060125"
  },
  {
    "id": "3502061291",
    "name": "謝德利診所",
    "area": "64000060",
    "address": "高雄市新興區林森一路158號",
    "phone": "(07)2413308",
    "latitude": "22.630029",
    "longtitude": "120.304775"
  },
  {
    "id": "3502062976",
    "name": "家佳診所",
    "area": "64000060",
    "address": "高雄市新興區和平一路193號",
    "phone": "(07)2234383",
    "latitude": "22.630779",
    "longtitude": "120.317574"
  },
  {
    "id": "3502063035",
    "name": "蔡瑞聲診所",
    "area": "64000060",
    "address": "高雄市新興區仁聲里中正三路63號",
    "phone": "(07)2413388",
    "latitude": "22.630768",
    "longtitude": "120.307841"
  },
  {
    "id": "3502063062",
    "name": "增田診所",
    "area": "64000060",
    "address": "高雄市新興區八德一路155號",
    "phone": "(07)2363128",
    "latitude": "22.635313",
    "longtitude": "120.309255"
  },
  {
    "id": "3502063115",
    "name": "健和診所",
    "area": "64000060",
    "address": "高雄市新興區青年一路278號",
    "phone": "(07)2513388",
    "latitude": "22.621866",
    "longtitude": "120.30718"
  },
  {
    "id": "3502063259",
    "name": "偉峰診所",
    "area": "64000060",
    "address": "高雄市新興區林森一路126號一樓",
    "phone": "(07)2820396",
    "latitude": "22.628484",
    "longtitude": "120.304599"
  },
  {
    "id": "3502063302",
    "name": "吳國欽內科診所",
    "area": "64000060",
    "address": "高雄市新興區民主路71號",
    "phone": "(07)2870789",
    "latitude": "22.632585",
    "longtitude": "120.298685"
  },
  {
    "id": "3502070450",
    "name": "蔡國晉家庭醫學科診所",
    "area": "64000070",
    "address": "高雄市前金區瑞源路189號",
    "phone": "(07)2858371",
    "latitude": "22.63484",
    "longtitude": "120.295939"
  },
  {
    "id": "3502070834",
    "name": "大明診所",
    "area": "64000070",
    "address": "高雄市前金區新田路220號",
    "phone": "(07)2413103",
    "latitude": "22.621047",
    "longtitude": "120.299575"
  },
  {
    "id": "3502072258",
    "name": "宏祐診所",
    "area": "64000070",
    "address": "高雄市前金區中正四路124號",
    "phone": "(07)2856777",
    "latitude": "22.630159",
    "longtitude": "120.297468"
  },
  {
    "id": "3502072267",
    "name": "嘉醫診所",
    "area": "64000070",
    "address": "高雄市前金區中華三路86號",
    "phone": "(07)2411891",
    "latitude": "22.627944",
    "longtitude": "120.2967"
  },
  {
    "id": "3502072589",
    "name": "德和診所",
    "area": "64000070",
    "address": "高雄市前金區自強一路18號",
    "phone": "(07)2515106",
    "latitude": "22.629393",
    "longtitude": "120.293887"
  },
  {
    "id": "3502080011",
    "name": "五塊厝診所",
    "area": "64000080",
    "address": "高雄市苓雅區三多一路139、141號",
    "phone": "(07)7614545",
    "latitude": "22.621457",
    "longtitude": "120.328074"
  },
  {
    "id": "3502080027",
    "name": "林文樹小兒科內科診所",
    "area": "64000080",
    "address": "高雄市苓雅區福康里武慶三路89號",
    "phone": "(07)7611286",
    "latitude": "22.621481",
    "longtitude": "120.331532"
  },
  {
    "id": "3502080107",
    "name": "張清雲內科小兒科診所",
    "area": "64000080",
    "address": "高雄市苓雅區苓雅里成功一路155號",
    "phone": "(07)3314071",
    "latitude": "22.615717",
    "longtitude": "120.296897"
  },
  {
    "id": "3502080214",
    "name": "安田婦產科診所",
    "area": "64000080",
    "address": "高雄市苓雅區三多二路353號",
    "phone": "(07)7255167",
    "latitude": "22.618275",
    "longtitude": "120.3158859"
  },
  {
    "id": "3502080670",
    "name": "吳國松心臟科診所",
    "area": "64000080",
    "address": "高雄市苓雅區三多二路283號",
    "phone": "(07)7614892",
    "latitude": "22.618714",
    "longtitude": "120.319856"
  },
  {
    "id": "3502080698",
    "name": "黃賢慶內兒科診所",
    "area": "64000080",
    "address": "高雄市苓雅區興中一路298號",
    "phone": "(07)3311062",
    "latitude": "22.616114",
    "longtitude": "120.305331"
  },
  {
    "id": "3502080732",
    "name": "許桂庭診所",
    "area": "64000080",
    "address": "高雄市苓雅區福德二路47號",
    "phone": "(07)7222634",
    "latitude": "22.6314",
    "longtitude": "120.327847"
  },
  {
    "id": "3502080787",
    "name": "羅吉雄內外科診所",
    "area": "64000080",
    "address": "高雄市苓雅區興中一路259號",
    "phone": "(07)3348118",
    "latitude": "22.617464",
    "longtitude": "120.310372"
  },
  {
    "id": "3502080894",
    "name": "林國坤診所",
    "area": "64000080",
    "address": "高雄市苓雅區建國一路115-4號",
    "phone": "(07)7225391",
    "latitude": "22.631493",
    "longtitude": "120.332737"
  },
  {
    "id": "3502081499",
    "name": "陳清裕小兒科診所",
    "area": "64000080",
    "address": "高雄市苓雅區福隆里三多一路327號",
    "phone": "(07)7517221",
    "latitude": "22.621667",
    "longtitude": "120.328586"
  },
  {
    "id": "3502081551",
    "name": "蔡小兒科",
    "area": "64000080",
    "address": "高雄市苓雅區林泉街19號",
    "phone": "(07)7238382",
    "latitude": "22.62341",
    "longtitude": "120.319766"
  },
  {
    "id": "3502081631",
    "name": "柯武鎮診所",
    "area": "64000080",
    "address": "高雄市苓雅區福壽街193號",
    "phone": "(07)7131840",
    "latitude": "22.626418",
    "longtitude": "120.32637"
  },
  {
    "id": "3502081659",
    "name": "泰順診所",
    "area": "64000080",
    "address": "高雄市苓雅區光華一路148-95號",
    "phone": "(07)2241595",
    "latitude": "22.626225",
    "longtitude": "120.314992"
  },
  {
    "id": "3502081793",
    "name": "健維診所",
    "area": "64000080",
    "address": "高雄市苓雅區福建街25號",
    "phone": "(07)3344637",
    "latitude": "22.618764",
    "longtitude": "120.316578"
  },
  {
    "id": "3502081882",
    "name": "小貝貝診所",
    "area": "64000080",
    "address": "高雄市苓雅區光華一路25號",
    "phone": "(07)3383099",
    "latitude": "22.61892",
    "longtitude": "120.317297"
  },
  {
    "id": "3502081971",
    "name": "惠霖診所",
    "area": "64000080",
    "address": "高雄市苓雅區建國一路111號1樓",
    "phone": "(07)7159500",
    "latitude": "22.630958",
    "longtitude": "120.334369"
  },
  {
    "id": "3502081980",
    "name": "楊朝欽內科診所",
    "area": "64000080",
    "address": "高雄市苓雅區三多三路238號",
    "phone": "(07)3349010",
    "latitude": "22.614645",
    "longtitude": "120.305921"
  },
  {
    "id": "3502082209",
    "name": "劉永豐診所",
    "area": "64000080",
    "address": "高雄市苓雅區建國一路15-1號",
    "phone": "(07)7492636",
    "latitude": "22.62887",
    "longtitude": "120.340528"
  },
  {
    "id": "3502083395",
    "name": "邱靖媛小兒科診所",
    "area": "64000080",
    "address": "高雄市苓雅區武慶三路89號",
    "phone": "(07)7215153",
    "latitude": "22.621481",
    "longtitude": "120.331532"
  },
  {
    "id": "3502083546",
    "name": "童春診所",
    "area": "64000080",
    "address": "高雄市苓雅區武慶三路98號",
    "phone": "(07)7210983",
    "latitude": "22.62047",
    "longtitude": "120.331852"
  },
  {
    "id": "3502083608",
    "name": "昱泰診所",
    "area": "64000080",
    "address": "高雄市苓雅區興中一路227號1-3樓",
    "phone": "(07)5378767",
    "latitude": "22.617839",
    "longtitude": "120.311518"
  },
  {
    "id": "3502083626",
    "name": "吳玉衡兒科",
    "area": "64000080",
    "address": "高雄市苓雅區青年一路1-17號1樓",
    "phone": "(07)7234526",
    "latitude": "22.6244686",
    "longtitude": "120.3136651"
  },
  {
    "id": "3502083822",
    "name": "聖安診所",
    "area": "64000080",
    "address": "高雄市苓雅區大順三路186號",
    "phone": "(07)7277057",
    "latitude": "22.633461",
    "longtitude": "120.326154"
  },
  {
    "id": "3502083902",
    "name": "同慶診所",
    "area": "64000080",
    "address": "高雄市苓雅區同慶路78號",
    "phone": "(07)2260957",
    "latitude": "22.627718",
    "longtitude": "120.321122"
  },
  {
    "id": "3502083911",
    "name": "小太陽診所",
    "area": "64000080",
    "address": "高雄市苓雅區凱旋里和平一路150號",
    "phone": "(07)2267753",
    "latitude": "22.627632",
    "longtitude": "120.319158"
  },
  {
    "id": "3502084150",
    "name": "一誠診所",
    "area": "64000080",
    "address": "高雄市苓雅區建國一路115-5號1樓",
    "phone": "(07)7511156",
    "latitude": "22.631511",
    "longtitude": "120.332693"
  },
  {
    "id": "3502084187",
    "name": "吳三江診所",
    "area": "64000080",
    "address": "高雄市苓雅區憲政路240號",
    "phone": "(07)2222088",
    "latitude": "22.6367",
    "longtitude": "120.321586"
  },
  {
    "id": "3502084230",
    "name": "信君耳鼻喉科診所",
    "area": "64000080",
    "address": "高雄市苓雅區武廟路30號",
    "phone": "(07)7168385",
    "latitude": "22.630064",
    "longtitude": "120.332219"
  },
  {
    "id": "3502084445",
    "name": "善美診所",
    "area": "64000080",
    "address": "高雄市苓雅區中華四路120號",
    "phone": "(07)3336030",
    "latitude": "22.61469",
    "longtitude": "120.301785"
  },
  {
    "id": "3502084472",
    "name": "黃武雄診所",
    "area": "64000080",
    "address": "高雄市苓雅區建國一路286號",
    "phone": "(07)7275889",
    "latitude": "22.633082",
    "longtitude": "120.326285"
  },
  {
    "id": "3502090041",
    "name": "謝麗煌小兒科內科診所",
    "area": "64000090",
    "address": "高雄市前鎮區瑞崗里隆興街151號",
    "phone": "(07)7716485",
    "latitude": "22.605815",
    "longtitude": "120.327817"
  },
  {
    "id": "3502090096",
    "name": "邱仲禮診所",
    "area": "64000090",
    "address": "高雄市前鎮區鎮榮街45號",
    "phone": "(07)8211363",
    "latitude": "22.590439",
    "longtitude": "120.311622"
  },
  {
    "id": "3502090167",
    "name": "施外科診所",
    "area": "64000090",
    "address": "高雄市前鎮區瑞東里瑞隆路363號",
    "phone": "(07)7114423",
    "latitude": "22.60536",
    "longtitude": "120.33124"
  },
  {
    "id": "3502090309",
    "name": "聖青診所",
    "area": "64000090",
    "address": "高雄市前鎮區明禮里草衙一路112號",
    "phone": "(07)8310970",
    "latitude": "22.584226",
    "longtitude": "120.32223"
  },
  {
    "id": "3502090470",
    "name": "瑞隆診所",
    "area": "64000090",
    "address": "高雄市前鎮區瑞東里瑞隆路373號",
    "phone": "(07)7512099",
    "latitude": "22.60535",
    "longtitude": "120.331052"
  },
  {
    "id": "3502090514",
    "name": "林正宗診所",
    "area": "64000090",
    "address": "高雄市前鎮區興東里一心一路404號",
    "phone": "(07)3303615",
    "latitude": "22.609581",
    "longtitude": "120.314973"
  },
  {
    "id": "3502090569",
    "name": "親親診所",
    "area": "64000090",
    "address": "高雄市前鎮區興東里一心一路402號",
    "phone": "(07)3391078",
    "latitude": "22.60951",
    "longtitude": "120.315164"
  },
  {
    "id": "3502090621",
    "name": "陳文宏診所",
    "area": "64000090",
    "address": "高雄市前鎮區瑞隆里瑞隆路319號",
    "phone": "(07)7131516",
    "latitude": "22.605458",
    "longtitude": "120.332297"
  },
  {
    "id": "3502090685",
    "name": "博聖診所",
    "area": "64000090",
    "address": "高雄市前鎮區鎮北里擴建一路59號",
    "phone": "(07)8218252",
    "latitude": "22.591319",
    "longtitude": "120.306597"
  },
  {
    "id": "3502090694",
    "name": "吳泰成耳鼻喉科診所",
    "area": "64000090",
    "address": "高雄市前鎮區林森三路150號",
    "phone": "(07)3361136",
    "latitude": "22.613571",
    "longtitude": "120.308862"
  },
  {
    "id": "3502090836",
    "name": "張朝金家庭醫學科外科診所",
    "area": "64000090",
    "address": "高雄市前鎮區瑞豐里瑞隆路631號",
    "phone": "(07)7119401",
    "latitude": "22.604802",
    "longtitude": "120.325308"
  },
  {
    "id": "3502091039",
    "name": "劉志明耳鼻喉科診所",
    "area": "64000090",
    "address": "高雄市前鎮區一心一路482號",
    "phone": "(07)3363311",
    "latitude": "22.609912",
    "longtitude": "120.314236"
  },
  {
    "id": "3502091235",
    "name": "龔國祥內科診所",
    "area": "64000090",
    "address": "高雄市前鎮區盛豐里復興三路301號",
    "phone": "(07)5351123",
    "latitude": "22.612066",
    "longtitude": "120.310987"
  },
  {
    "id": "3502091271",
    "name": "楊榮超診所",
    "area": "64000090",
    "address": "高雄市前鎮區西甲里一心二路133號",
    "phone": "(07)3382616",
    "latitude": "22.612089",
    "longtitude": "120.308336"
  },
  {
    "id": "3502091324",
    "name": "林慶端診所",
    "area": "64000090",
    "address": "高雄市前鎮區竹中里和平二路293號",
    "phone": "(07)7616392",
    "latitude": "22.615284",
    "longtitude": "120.322384"
  },
  {
    "id": "3502097175",
    "name": "永興診所",
    "area": "64000090",
    "address": "高雄市前鎮區鎮興路222號",
    "phone": "(07)8157006",
    "latitude": "22.593013",
    "longtitude": "120.311705"
  },
  {
    "id": "3502097237",
    "name": "陳方明診所",
    "area": "64000090",
    "address": "高雄市前鎮區西山里一心二路59號",
    "phone": "(07)5374381",
    "latitude": "22.611336",
    "longtitude": "120.310085"
  },
  {
    "id": "3502097755",
    "name": "永祥診所",
    "area": "64000090",
    "address": "高雄市前鎮區永豐路110號",
    "phone": "(07)7515678",
    "latitude": "22.606544",
    "longtitude": "120.333681"
  },
  {
    "id": "3502097835",
    "name": "昭哲診所",
    "area": "64000090",
    "address": "高雄市前鎮區永豐路214號",
    "phone": "(07)7136366",
    "latitude": "22.608738",
    "longtitude": "120.333427"
  },
  {
    "id": "3502097997",
    "name": "上晴診所",
    "area": "64000090",
    "address": "高雄市前鎮區瑞北路88號",
    "phone": "(07)7249449",
    "latitude": "22.609247",
    "longtitude": "120.33357"
  },
  {
    "id": "3502098010",
    "name": "吉泰內科診所",
    "area": "64000090",
    "address": "高雄市前鎮區瑞隆里保泰路419號",
    "phone": "(07)7616000",
    "latitude": "22.60407",
    "longtitude": "120.335837"
  },
  {
    "id": "3502098092",
    "name": "慶大診所",
    "area": "64000090",
    "address": "高雄市前鎮區中華五路993號2樓",
    "phone": "(07)5366226",
    "latitude": "22.602597",
    "longtitude": "120.305875"
  },
  {
    "id": "3502098109",
    "name": "美和診所",
    "area": "64000090",
    "address": "高雄市前鎮區鎮昌里翠亨北路577號",
    "phone": "(07)8123381",
    "latitude": "22.592287",
    "longtitude": "120.312972"
  },
  {
    "id": "3502098163",
    "name": "蕭基昌耳鼻喉科診所",
    "area": "64000090",
    "address": "高雄市前鎮區瑞昌里永豐路91號",
    "phone": "(07)7510098",
    "latitude": "22.60601",
    "longtitude": "120.333255"
  },
  {
    "id": "3502098172",
    "name": "慧安診所",
    "area": "64000090",
    "address": "高雄市前鎮區瑞興里瑞和街100號",
    "phone": "(07)7223889",
    "latitude": "22.607014",
    "longtitude": "120.330151"
  },
  {
    "id": "3502098190",
    "name": "宏恩診所",
    "area": "64000090",
    "address": "高雄市前鎮區忠純里正勤路71號",
    "phone": "(07)5370666",
    "latitude": "22.602873",
    "longtitude": "120.305389"
  },
  {
    "id": "3502100079",
    "name": "白鋒釗診所",
    "area": "64000100",
    "address": "高雄市旗津區中洲三路99-1號",
    "phone": "(07)5718239",
    "latitude": "22.597753",
    "longtitude": "120.280374"
  },
  {
    "id": "3502100097",
    "name": "徐誌忠診所",
    "area": "64000100",
    "address": "高雄市旗津區中洲三路775號",
    "phone": "(07)5710063",
    "latitude": "22.61192",
    "longtitude": "120.269795"
  },
  {
    "id": "3502101101",
    "name": "賴顯忠診所",
    "area": "64000100",
    "address": "高雄市旗津區商港街14巷92弄18號",
    "phone": "(07)5718773",
    "latitude": "22.576063",
    "longtitude": "120.295068"
  },
  {
    "id": "3502110146",
    "name": "羅錦泉診所",
    "area": "64000110",
    "address": "高雄市小港區平和路105號",
    "phone": "(07)8314168",
    "latitude": "22.565559",
    "longtitude": "120.333158"
  },
  {
    "id": "3502110324",
    "name": "大林蒲診所",
    "area": "64000110",
    "address": "高雄市小港區鳳林路113-1號",
    "phone": "(07)8714668",
    "latitude": "22.526787",
    "longtitude": "120.345932"
  },
  {
    "id": "3502110440",
    "name": "蔡聰慶診所",
    "area": "64000110",
    "address": "高雄市小港區孔鳳路239號",
    "phone": "(07)7914257",
    "latitude": "22.581189",
    "longtitude": "120.363801"
  },
  {
    "id": "3502110593",
    "name": "明義診所",
    "area": "64000110",
    "address": "高雄市小港區孔鳳路542號",
    "phone": "(07)7916959",
    "latitude": "22.582145",
    "longtitude": "120.358821"
  },
  {
    "id": "3502110637",
    "name": "施晉南診所",
    "area": "64000110",
    "address": "高雄市小港區平治街1號",
    "phone": "(07)8021622",
    "latitude": "22.567621",
    "longtitude": "120.358186"
  },
  {
    "id": "3502110646",
    "name": "洪清中兒科診所",
    "area": "64000110",
    "address": "高雄市小港區二苓里二苓路192號",
    "phone": "(07)8063773",
    "latitude": "22.5654173",
    "longtitude": "120.3468677"
  },
  {
    "id": "3502111929",
    "name": "柯芳蓉黃麗瑛小兒科診所",
    "area": "64000110",
    "address": "高雄市小港區漢民路716號",
    "phone": "(07)8053077",
    "latitude": "22.567603",
    "longtitude": "120.362306"
  },
  {
    "id": "3502111938",
    "name": "季仁診所",
    "area": "64000110",
    "address": "高雄市小港區宏平路497號",
    "phone": "(07)8013712",
    "latitude": "22.569638",
    "longtitude": "120.355031"
  },
  {
    "id": "3502111956",
    "name": "蔡坤霖小兒科診所",
    "area": "64000110",
    "address": "高雄市小港區二苓里二苓路148號",
    "phone": "(07)8030816",
    "latitude": "22.5653739",
    "longtitude": "120.3478971"
  },
  {
    "id": "3502112060",
    "name": "鳳林診所",
    "area": "64000110",
    "address": "高雄市小港區鳳林路93-1號",
    "phone": "(07)8720822",
    "latitude": "22.526359",
    "longtitude": "120.3442003"
  },
  {
    "id": "3502112079",
    "name": "小林診所",
    "area": "64000110",
    "address": "高雄市小港區鳳林路67號",
    "phone": "(07)8711285",
    "latitude": "22.525842",
    "longtitude": "120.346815"
  },
  {
    "id": "3502112140",
    "name": "明港診所",
    "area": "64000110",
    "address": "高雄市小港區華山路137號",
    "phone": "(07)8055116",
    "latitude": "22.566447",
    "longtitude": "120.36739"
  },
  {
    "id": "3507010025",
    "name": "大欣診所",
    "area": "64000120",
    "address": "高雄市鳳山區文化路25號1樓",
    "phone": "(07)7993009",
    "latitude": "22.633281",
    "longtitude": "120.357799"
  },
  {
    "id": "3507010114",
    "name": "文山診所",
    "area": "64000120",
    "address": "高雄市鳳山區建國路三段157號",
    "phone": "(07)7107010",
    "latitude": "22.636672",
    "longtitude": "120.353672"
  },
  {
    "id": "3507010150",
    "name": "文德診所",
    "area": "64000120",
    "address": "高雄市鳳山區文衡路295號1F",
    "phone": "(07)7805189",
    "latitude": "22.640157",
    "longtitude": "120.353815"
  },
  {
    "id": "3507010178",
    "name": "孟昌小兒科診所",
    "area": "64000120",
    "address": "高雄市鳳山區海洋二路39號1樓",
    "phone": "(07)7650908",
    "latitude": "22.610568",
    "longtitude": "120.346513"
  },
  {
    "id": "3507010249",
    "name": "吳萍建小兒科診所",
    "area": "64000120",
    "address": "高雄市鳳山區瑞明街90巷8號1樓",
    "phone": "(07)7191180",
    "latitude": "22.6276",
    "longtitude": "120.371591"
  },
  {
    "id": "3507010285",
    "name": "吳文誌診所",
    "area": "64000120",
    "address": "高雄市鳳山區鳳林路258號",
    "phone": "(07)7820958",
    "latitude": "22.622178",
    "longtitude": "120.376986"
  },
  {
    "id": "3507010310",
    "name": "建億診所",
    "area": "64000120",
    "address": "高雄市鳳山區文濱路7號1-2樓",
    "phone": "(07)7809119",
    "latitude": "22.638324",
    "longtitude": "120.348148"
  },
  {
    "id": "3507010454",
    "name": "文山長慶診所",
    "area": "64000120",
    "address": "高雄市鳳山區文龍東路738號",
    "phone": "(07)7774098",
    "latitude": "22.64282",
    "longtitude": "120.353965"
  },
  {
    "id": "3507010472",
    "name": "詠馨診所",
    "area": "64000120",
    "address": "高雄市鳳山區五福一路2、6號",
    "phone": "(07)8119789",
    "latitude": "22.591818",
    "longtitude": "120.326784"
  },
  {
    "id": "3507010481",
    "name": "黃柏仁診所",
    "area": "64000120",
    "address": "高雄市鳳山區文豐街36巷3號1樓",
    "phone": "(07)7132835",
    "latitude": "22.596789",
    "longtitude": "120.335949"
  },
  {
    "id": "3507010516",
    "name": "杏康診所",
    "area": "64000120",
    "address": "高雄市鳳山區文化路47-1號",
    "phone": "(07)7407580",
    "latitude": "22.633537",
    "longtitude": "120.356341"
  },
  {
    "id": "3507010525",
    "name": "鴻仁健康診所",
    "area": "64000120",
    "address": "高雄市鳳山區青年路二段148號1-2樓",
    "phone": "(07)7408333",
    "latitude": "22.635656",
    "longtitude": "120.350513"
  },
  {
    "id": "3507010570",
    "name": "鳳山健安診所",
    "area": "64000120",
    "address": "高雄市鳳山區青年路二段358-1號1-2樓",
    "phone": "(07)7677002",
    "latitude": "22.641595",
    "longtitude": "120.351415"
  },
  {
    "id": "3507010614",
    "name": "佑安耳鼻喉科診所",
    "area": "64000120",
    "address": "高雄市鳳山區中山東路164號",
    "phone": "(07)7030333",
    "latitude": "22.625725",
    "longtitude": "120.374918"
  },
  {
    "id": "3507010632",
    "name": "聖恩診所",
    "area": "64000120",
    "address": "高雄市鳳山區五甲二路395、397號1樓",
    "phone": "(07)7613111",
    "latitude": "22.597559",
    "longtitude": "120.335452"
  },
  {
    "id": "3507010650",
    "name": "高丹榕診所",
    "area": "64000120",
    "address": "高雄市鳳山區光復路二段223號1樓",
    "phone": "(07)7475556",
    "latitude": "22.629275",
    "longtitude": "120.344788"
  },
  {
    "id": "3507010669",
    "name": "博新診所",
    "area": "64000120",
    "address": "高雄市鳳山區博愛路19、21號1樓",
    "phone": "(07)7019595",
    "latitude": "22.626315",
    "longtitude": "120.374399"
  },
  {
    "id": "3507010696",
    "name": "德安診所",
    "area": "64000120",
    "address": "高雄市鳳山區瑞興路416號",
    "phone": "(07)7022957",
    "latitude": "22.631003",
    "longtitude": "120.36971"
  },
  {
    "id": "3507010703",
    "name": "牛伯伯兒科診所",
    "area": "64000120",
    "address": "高雄市鳳山區建國路三段338號",
    "phone": "(07)7808123",
    "latitude": "22.638167",
    "longtitude": "120.350096"
  },
  {
    "id": "3507020049",
    "name": "永順診所",
    "area": "64000190",
    "address": "高雄市岡山區岡山路72號1-2樓",
    "phone": "(07)6243376",
    "latitude": "22.787434",
    "longtitude": "120.29686"
  },
  {
    "id": "3507030018",
    "name": "大元診所",
    "area": "64000300",
    "address": "高雄市旗山區大同街13-1號",
    "phone": "(07)6612100",
    "latitude": "22.883458",
    "longtitude": "120.4819841"
  },
  {
    "id": "3507030036",
    "name": "大政診所",
    "area": "64000300",
    "address": "高雄市旗山區延平一路337號",
    "phone": "(07)6622588",
    "latitude": "22.892398",
    "longtitude": "120.483648"
  },
  {
    "id": "3507030072",
    "name": "嘉惠診所",
    "area": "64000300",
    "address": "高雄市旗山區大同街42號",
    "phone": "(07)6621900",
    "latitude": "22.88329",
    "longtitude": "120.484803"
  },
  {
    "id": "3507050065",
    "name": "聯美診所",
    "area": "64000130",
    "address": "高雄市林園區林園北路344號",
    "phone": "(07)6433512",
    "latitude": "22.511488",
    "longtitude": "120.394952"
  },
  {
    "id": "3507060043",
    "name": "大鋐診所",
    "area": "64000140",
    "address": "高雄市大寮區中庄里鳳屏一路472號",
    "phone": "(07)7038188",
    "latitude": "22.636114",
    "longtitude": "120.392853"
  },
  {
    "id": "3507060052",
    "name": "詠新耳鼻喉科診所",
    "area": "64000140",
    "address": "高雄市大寮區鳳屏一路690號一樓",
    "phone": "(07)7032000",
    "latitude": "22.638205",
    "longtitude": "120.397164"
  },
  {
    "id": "3507080045",
    "name": "揚善診所",
    "area": "64000170",
    "address": "高雄市仁武區仁樂街178號",
    "phone": "(07)3758419",
    "latitude": "22.703641",
    "longtitude": "120.3472"
  },
  {
    "id": "3507080063",
    "name": "仁武好心診所",
    "area": "64000170",
    "address": "高雄市仁武區中正路301號1樓",
    "phone": "(07)3719895",
    "latitude": "22.702844",
    "longtitude": "120.35307"
  },
  {
    "id": "3507080090",
    "name": "仁雄診所",
    "area": "64000170",
    "address": "高雄市仁武區仁和里仁雄路15-1號",
    "phone": "(07)3741298",
    "latitude": "22.680719",
    "longtitude": "120.353236"
  },
  {
    "id": "3507080161",
    "name": "大林診所",
    "area": "64000170",
    "address": "高雄市仁武區仁雄路9號",
    "phone": "(07)3718528",
    "latitude": "22.681291",
    "longtitude": "120.354875"
  },
  {
    "id": "3507090050",
    "name": "微恩診所",
    "area": "64000160",
    "address": "高雄市大社區中山路195號",
    "phone": "(07)3530781",
    "latitude": "22.732152",
    "longtitude": "120.347034"
  },
  {
    "id": "3507100015",
    "name": "豐穎診所",
    "area": "64000180",
    "address": "高雄市鳥松區中正路355-2號",
    "phone": "(07)7316336",
    "latitude": "22.662932",
    "longtitude": "120.363326"
  },
  {
    "id": "3507110020",
    "name": "張民傑診所",
    "area": "64000200",
    "address": "高雄市橋頭區新興路95號",
    "phone": "(07)6118991",
    "latitude": "22.758658",
    "longtitude": "120.307377"
  },
  {
    "id": "3507140028",
    "name": "阿蓮康健診所",
    "area": "64000230",
    "address": "高雄市阿蓮區中正路383號",
    "phone": "(07)6317288",
    "latitude": "22.880538",
    "longtitude": "120.33298"
  },
  {
    "id": "3507150051",
    "name": "路竹內科診所",
    "area": "64000240",
    "address": "高雄市路竹區國昌路136號",
    "phone": "(07)6076111",
    "latitude": "22.85475",
    "longtitude": "120.256863"
  },
  {
    "id": "3507200038",
    "name": "嘉田診所",
    "area": "64000290",
    "address": "高雄市梓官區進學路124號",
    "phone": "(07)6107738",
    "latitude": "22.760468",
    "longtitude": "120.263373"
  },
  {
    "id": "3507240014",
    "name": "林重慶診所",
    "area": "64000350",
    "address": "高雄市內門區觀亭里中正路160巷50號",
    "phone": "(07)6671883",
    "latitude": "22.923167",
    "longtitude": "120.453838"
  },
  {
    "id": "3507290283",
    "name": "南加大耳鼻喉科診所",
    "area": "64000020",
    "address": "高雄市鼓山區明華路303號",
    "phone": "(07)5525711",
    "latitude": "22.663334",
    "longtitude": "120.30035"
  },
  {
    "id": "3507290318",
    "name": "朱光興診所",
    "area": "64000020",
    "address": "高雄市鼓山區文信路256號",
    "phone": "(07)5227188",
    "latitude": "22.664737",
    "longtitude": "120.299177"
  },
  {
    "id": "3507290336",
    "name": "為好診所",
    "area": "64000020",
    "address": "高雄市鼓山區鼓山區九如四路957號2樓",
    "phone": "(07)5217466",
    "latitude": "22.6535754",
    "longtitude": "120.2751215"
  },
  {
    "id": "3507300097",
    "name": "彌馨診所",
    "area": "64000030",
    "address": "高雄市左營區至聖路288號",
    "phone": "(07)5586080",
    "latitude": "22.659789",
    "longtitude": "120.304354"
  },
  {
    "id": "3507300186",
    "name": "賴孟德診所",
    "area": "64000030",
    "address": "高雄市左營區孟子路608號",
    "phone": "(07)3439801",
    "latitude": "22.677985",
    "longtitude": "120.303923"
  },
  {
    "id": "3507300604",
    "name": "詠康診所",
    "area": "64000030",
    "address": "高雄市左營區後昌路603號1樓",
    "phone": "(07)3637880",
    "latitude": "22.707727",
    "longtitude": "120.299482"
  },
  {
    "id": "3507300748",
    "name": "宗禾診所",
    "area": "64000030",
    "address": "高雄市左營區博愛四路80號",
    "phone": "(07)3500980",
    "latitude": "22.681765",
    "longtitude": "120.311294"
  },
  {
    "id": "3507300784",
    "name": "中心小兒科診所",
    "area": "64000030",
    "address": "高雄市左營區新庄仔路179-6號",
    "phone": "(07)3488226",
    "latitude": "22.670332",
    "longtitude": "120.30405"
  },
  {
    "id": "3507300908",
    "name": "文愛診所",
    "area": "64000030",
    "address": "高雄市左營區重愛路303號",
    "phone": "(07)3430123",
    "latitude": "22.686491",
    "longtitude": "120.314109"
  },
  {
    "id": "3507310146",
    "name": "安馨楠梓內科診所",
    "area": "64000040",
    "address": "高雄市楠梓區楠都東街209號",
    "phone": "(07)3553866",
    "latitude": "22.726626",
    "longtitude": "120.326841"
  },
  {
    "id": "3507310182",
    "name": "家恩診所",
    "area": "64000040",
    "address": "高雄市楠梓區旗楠路883-8號1樓",
    "phone": "(07)3551133",
    "latitude": "22.741502",
    "longtitude": "120.338018"
  },
  {
    "id": "3507310208",
    "name": "慕恩診所",
    "area": "64000040",
    "address": "高雄市楠梓區高楠公路1762號",
    "phone": "(07)3638188",
    "latitude": "22.72852",
    "longtitude": "120.321627"
  },
  {
    "id": "3507310217",
    "name": "杏美診所",
    "area": "64000040",
    "address": "高雄市楠梓區德祥路149號1樓",
    "phone": "(07)3645599",
    "latitude": "22.726587",
    "longtitude": "120.309347"
  },
  {
    "id": "3507310253",
    "name": "小王子小兒科診所",
    "area": "64000040",
    "address": "高雄市楠梓區土庫一路190號",
    "phone": "(07)3530119",
    "latitude": "22.736498",
    "longtitude": "120.3292"
  },
  {
    "id": "3507310271",
    "name": "楊宗憲診所",
    "area": "64000040",
    "address": "高雄市楠梓區德賢路165號",
    "phone": "(07)3663511",
    "latitude": "22.726559",
    "longtitude": "120.306581"
  },
  {
    "id": "3507310280",
    "name": "何慈育診所",
    "area": "64000040",
    "address": "高雄市楠梓區德民路1003-3號",
    "phone": "(07)3012355",
    "latitude": "22.71915",
    "longtitude": "120.286616"
  },
  {
    "id": "3507310324",
    "name": "弘達診所",
    "area": "64000040",
    "address": "高雄市楠梓區德賢路573號",
    "phone": "(07)3655995",
    "latitude": "22.72517",
    "longtitude": "120.299886"
  },
  {
    "id": "3507310342",
    "name": "建霖診所",
    "area": "64000040",
    "address": "高雄市楠梓區鳳楠路248號",
    "phone": "(07)3523006",
    "latitude": "22.726124",
    "longtitude": "120.329623"
  },
  {
    "id": "3507310351",
    "name": "季建華耳鼻喉科診所",
    "area": "64000040",
    "address": "高雄市楠梓區加昌618號",
    "phone": "(07)3663331",
    "latitude": "22.7155196",
    "longtitude": "120.2958837"
  },
  {
    "id": "3507320035",
    "name": "柳雱邁診所",
    "area": "64000050",
    "address": "高雄市三民區大順二路96號",
    "phone": "(07)3895640",
    "latitude": "22.641955",
    "longtitude": "120.327285"
  },
  {
    "id": "3507320044",
    "name": "捷祺家庭兒科診所",
    "area": "64000050",
    "address": "高雄市三民區裕誠路125號",
    "phone": "(07)3503666",
    "latitude": "22.663695",
    "longtitude": "120.312908"
  },
  {
    "id": "3507320080",
    "name": "郭建宏小兒科診所",
    "area": "64000050",
    "address": "高雄市三民區義華路394號1樓",
    "phone": "(07)3982606",
    "latitude": "22.643732",
    "longtitude": "120.333274"
  },
  {
    "id": "3507320133",
    "name": "愛彼高榮育仁診所",
    "area": "64000050",
    "address": "高雄市三民區九如一路896號",
    "phone": "(07)3891080",
    "latitude": "22.640306",
    "longtitude": "120.3153053"
  },
  {
    "id": "3507320142",
    "name": "林正?小兒科診所",
    "area": "64000050",
    "address": "高雄市三民區覺民路647號",
    "phone": "(07)3806183",
    "latitude": "22.641046",
    "longtitude": "120.3279"
  },
  {
    "id": "3507320231",
    "name": "崇田耳鼻喉科診所",
    "area": "64000050",
    "address": "高雄市三民區建工路302號",
    "phone": "(07)3899900",
    "latitude": "22.653659",
    "longtitude": "120.331613"
  },
  {
    "id": "3507320277",
    "name": "鼎山診所",
    "area": "64000050",
    "address": "高雄市三民區鼎山街598號",
    "phone": "(07)3824296",
    "latitude": "22.650762",
    "longtitude": "120.316942"
  },
  {
    "id": "3507320375",
    "name": "真善美診所",
    "area": "64000050",
    "address": "高雄市三民區覺民路69號",
    "phone": "(07)3945929",
    "latitude": "22.638707",
    "longtitude": "120.343303"
  },
  {
    "id": "3507320526",
    "name": "鼎真診所",
    "area": "64000050",
    "address": "高雄市三民區金鼎路325號",
    "phone": "(07)3103130",
    "latitude": "22.664783",
    "longtitude": "120.32017"
  },
  {
    "id": "3507320562",
    "name": "祐笙診所",
    "area": "64000050",
    "address": "高雄市三民區鼎中路396號",
    "phone": "(07)3105978",
    "latitude": "22.666794",
    "longtitude": "120.319806"
  },
  {
    "id": "3507320642",
    "name": "樂田耳鼻喉科診所",
    "area": "64000050",
    "address": "高雄市三民區熱河一街365號",
    "phone": "(07)3115999",
    "latitude": "22.643607",
    "longtitude": "120.3036909"
  },
  {
    "id": "3507320688",
    "name": "曾柏彰診所",
    "area": "64000050",
    "address": "高雄市三民區鼎力路339號1樓",
    "phone": "(07)3103216",
    "latitude": "22.669347",
    "longtitude": "120.324554"
  },
  {
    "id": "3507320811",
    "name": "建心診所",
    "area": "64000050",
    "address": "高雄市三民區裕誠路108號",
    "phone": "(07)3593343",
    "latitude": "22.663993",
    "longtitude": "120.312845"
  },
  {
    "id": "3507320955",
    "name": "國安診所",
    "area": "64000050",
    "address": "高雄市三民區建興路193號",
    "phone": "(07)3865379",
    "latitude": "22.643712",
    "longtitude": "120.325846"
  },
  {
    "id": "3507330031",
    "name": "光晴診所",
    "area": "64000060",
    "address": "高雄市新興區開封路31號",
    "phone": "(07)2260591",
    "latitude": "22.628341",
    "longtitude": "120.311267"
  },
  {
    "id": "3507330228",
    "name": "張正國診所",
    "area": "64000060",
    "address": "高雄市新興區忠孝一路19號",
    "phone": "(07)2216730",
    "latitude": "22.622362",
    "longtitude": "120.307016"
  },
  {
    "id": "3507330291",
    "name": "馬敘強診所",
    "area": "64000060",
    "address": "高雄市新興區林森一路37-1號",
    "phone": "(07)2817220",
    "latitude": "22.623906",
    "longtitude": "120.305021"
  },
  {
    "id": "3507340199",
    "name": "大郭診所",
    "area": "64000070",
    "address": "高雄市前金區自強二路69號",
    "phone": "(07)2412233",
    "latitude": "22.624056",
    "longtitude": "120.295622"
  },
  {
    "id": "3507350024",
    "name": "立佳診所",
    "area": "64000080",
    "address": "高雄市苓雅區輔仁路149號",
    "phone": "(07)7710966",
    "latitude": "22.630221",
    "longtitude": "120.333015"
  },
  {
    "id": "3507350060",
    "name": "宇安診所",
    "area": "64000080",
    "address": "高雄市苓雅區四維二路94-18號",
    "phone": "(07)7511779",
    "latitude": "22.622714",
    "longtitude": "120.319622"
  },
  {
    "id": "3507350097",
    "name": "邱康程內科診所",
    "area": "64000080",
    "address": "高雄市苓雅區建國一路336號",
    "phone": "(07)2231118",
    "latitude": "22.632931",
    "longtitude": "120.324657"
  },
  {
    "id": "3507350211",
    "name": "新鴻遠診所",
    "area": "64000080",
    "address": "高雄市苓雅區建國一路113-2號1樓",
    "phone": "(07)7229860",
    "latitude": "22.631323",
    "longtitude": "120.33324"
  },
  {
    "id": "3507350275",
    "name": "信基骨科門診",
    "area": "64000080",
    "address": "高雄市苓雅區林森二路11-3號",
    "phone": "(07)3383886",
    "latitude": "22.616532",
    "longtitude": "120.307858"
  },
  {
    "id": "3507360039",
    "name": "大家診所",
    "area": "64000090",
    "address": "高雄市前鎮區明正里草衙二路430號",
    "phone": "(07)8117772",
    "latitude": "22.57929",
    "longtitude": "120.322684"
  },
  {
    "id": "3507360066",
    "name": "祥全診所",
    "area": "64000090",
    "address": "高雄市前鎮區盛豐里一心二路86號",
    "phone": "(07)3340393",
    "latitude": "22.611534",
    "longtitude": "120.310407"
  },
  {
    "id": "3507360182",
    "name": "佑鎮診所",
    "area": "64000090",
    "address": "高雄市前鎮區平等里樹人路128號",
    "phone": "(07)8121606",
    "latitude": "22.588885",
    "longtitude": "120.319849"
  },
  {
    "id": "3507360271",
    "name": "前鎮長青診所",
    "area": "64000090",
    "address": "高雄市前鎮區竹南里凱旋三路83號",
    "phone": "(07)7225270",
    "latitude": "22.606842",
    "longtitude": "120.324713"
  },
  {
    "id": "3507360351",
    "name": "全家診所",
    "area": "64000090",
    "address": "高雄市前鎮區竹北里二聖一路92號",
    "phone": "(07)7273688",
    "latitude": "22.612251",
    "longtitude": "120.324264"
  },
  {
    "id": "3507360397",
    "name": "大鈞診所",
    "area": "64000090",
    "address": "高雄市前鎮區草衙二路430號",
    "phone": "(07)8117772",
    "latitude": "22.579295",
    "longtitude": "120.3205119"
  },
  {
    "id": "3507360413",
    "name": "南隆小兒科診所",
    "area": "64000090",
    "address": "高雄市前鎮區盛興里林森三路146號",
    "phone": "(07)3385678",
    "latitude": "22.613485",
    "longtitude": "120.308807"
  },
  {
    "id": "3507370026",
    "name": "重康診所",
    "area": "64000100",
    "address": "高雄市旗津區通山路31號",
    "phone": "(07)5719288",
    "latitude": "22.612837",
    "longtitude": "120.268777"
  },
  {
    "id": "3507370035",
    "name": "晴美旗后診所",
    "area": "64000100",
    "address": "高雄市旗津區旗津三路962巷2號",
    "phone": "(07)5710522",
    "latitude": "22.607534",
    "longtitude": "120.270472"
  },
  {
    "id": "3507380031",
    "name": "桂陽診所",
    "area": "64000110",
    "address": "高雄市小港區桂陽路310號",
    "phone": "(07)7917770",
    "latitude": "22.582112",
    "longtitude": "120.352314"
  },
  {
    "id": "3507380068",
    "name": "長慶小兒科診所",
    "area": "64000110",
    "address": "高雄市小港區漢民路413號",
    "phone": "(07)8068170",
    "latitude": "22.56701",
    "longtitude": "120.357745"
  },
  {
    "id": "3507380111",
    "name": "孔鳳診所",
    "area": "64000110",
    "address": "高雄市小港區孔鳳路571號",
    "phone": "(07)7910311",
    "latitude": "22.584076",
    "longtitude": "120.3564339"
  },
  {
    "id": "3542010054",
    "name": "王梗楠診所",
    "area": "64000120",
    "address": "高雄市鳳山區光遠路82號",
    "phone": "(07)7460334",
    "latitude": "22.624088",
    "longtitude": "120.366202"
  },
  {
    "id": "3542010287",
    "name": "國仁內科小兒科診所",
    "area": "64000120",
    "address": "高雄市鳳山區中山西路2-3號",
    "phone": "(07)7461855",
    "latitude": "22.5960569",
    "longtitude": "120.32535"
  },
  {
    "id": "3542010723",
    "name": "國民小兒科診所",
    "area": "64000120",
    "address": "高雄市鳳山區中正路37號",
    "phone": "(07)7427925",
    "latitude": "22.625259",
    "longtitude": "120.359214"
  },
  {
    "id": "3542011211",
    "name": "台安診所",
    "area": "64000120",
    "address": "高雄市鳳山區雙慈街26號",
    "phone": "(07)7410268",
    "latitude": "22.625003",
    "longtitude": "120.35708"
  },
  {
    "id": "3542011293",
    "name": "楊寶麟小兒科診所",
    "area": "64000120",
    "address": "高雄市鳳山區南京路312號",
    "phone": "(07)7639092",
    "latitude": "22.615262",
    "longtitude": "120.345901"
  },
  {
    "id": "3542011328",
    "name": "鳳德診所",
    "area": "64000120",
    "address": "高雄市鳳山區南京路153-21號",
    "phone": "(07)7663893",
    "latitude": "22.609881",
    "longtitude": "120.345281"
  },
  {
    "id": "3542011382",
    "name": "凱旋診所",
    "area": "64000120",
    "address": "高雄市鳳山區凱旋路261號",
    "phone": "(07)7637639",
    "latitude": "22.613218",
    "longtitude": "120.349155"
  },
  {
    "id": "3542011471",
    "name": "林錦浩耳鼻喉科診所",
    "area": "64000120",
    "address": "高雄市鳳山區新興里光遠路260號",
    "phone": "(07)7419880",
    "latitude": "22.625619",
    "longtitude": "120.362128"
  },
  {
    "id": "3542011506",
    "name": "韓台基診所",
    "area": "64000120",
    "address": "高雄市鳳山區新富路333號",
    "phone": "(07)7662525",
    "latitude": "22.613261",
    "longtitude": "120.344944"
  },
  {
    "id": "3542011551",
    "name": "文衡診所",
    "area": "64000120",
    "address": "高雄市鳳山區文衡路344號",
    "phone": "(07)7768185",
    "latitude": "22.640205",
    "longtitude": "120.355006"
  },
  {
    "id": "3542011800",
    "name": "鳳山全民診所",
    "area": "64000120",
    "address": "高雄市鳳山區博愛路328號",
    "phone": "(07)7037038",
    "latitude": "22.630827",
    "longtitude": "120.368622"
  },
  {
    "id": "3542011828",
    "name": "趙大夫診所",
    "area": "64000120",
    "address": "高雄市鳳山區瑞竹路97號",
    "phone": "(07)7104010",
    "latitude": "22.626363",
    "longtitude": "120.367477"
  },
  {
    "id": "3542011864",
    "name": "何鴻鈞診所",
    "area": "64000120",
    "address": "高雄市鳳山區林森路324號",
    "phone": "(07)7716819",
    "latitude": "22.596792",
    "longtitude": "120.338004"
  },
  {
    "id": "3542011935",
    "name": "唯均耳鼻喉科",
    "area": "64000120",
    "address": "高雄市鳳山區海洋二路139號",
    "phone": "(07)7638199",
    "latitude": "22.6128",
    "longtitude": "120.348331"
  },
  {
    "id": "3542012076",
    "name": "黃大沅小兒科診所",
    "area": "64000120",
    "address": "高雄市鳳山區青年路二段468號",
    "phone": "(07)7679299",
    "latitude": "22.644126",
    "longtitude": "120.351512"
  },
  {
    "id": "3542012307",
    "name": "澄明診所",
    "area": "64000120",
    "address": "高雄市鳳山區國富路28號",
    "phone": "(07)7633595",
    "latitude": "22.615562",
    "longtitude": "120.349899"
  },
  {
    "id": "3542012334",
    "name": "陳俊宏小兒科診所",
    "area": "64000120",
    "address": "高雄市鳳山區五甲一路85號",
    "phone": "(07)7450066",
    "latitude": "22.620633",
    "longtitude": "120.356955"
  },
  {
    "id": "3542012352",
    "name": "李威德診所",
    "area": "64000120",
    "address": "高雄市鳳山區五甲三路48號",
    "phone": "(07)8227676",
    "latitude": "22.592924",
    "longtitude": "120.327309"
  },
  {
    "id": "3542012469",
    "name": "林誓揚診所",
    "area": "64000120",
    "address": "高雄市鳳山區經武路18號",
    "phone": "(07)7482228",
    "latitude": "22.626181",
    "longtitude": "120.362213"
  },
  {
    "id": "3542013519",
    "name": "明倫家醫科診所",
    "area": "64000120",
    "address": "高雄市鳳山區凱旋路365號",
    "phone": "(07)7631703",
    "latitude": "22.615368",
    "longtitude": "120.346115"
  },
  {
    "id": "3542013840",
    "name": "祐幼小兒科診所",
    "area": "64000120",
    "address": "高雄市鳳山區文德里文衡路377號1F",
    "phone": "(07)7769977",
    "latitude": "22.6405587",
    "longtitude": "120.3491579"
  },
  {
    "id": "3542013859",
    "name": "嘉美診所",
    "area": "64000120",
    "address": "高雄市鳳山區中山路79號",
    "phone": "(07)7413668",
    "latitude": "22.621406",
    "longtitude": "120.360134"
  },
  {
    "id": "3542013886",
    "name": "黃榮隆診所",
    "area": "64000120",
    "address": "高雄市鳳山區文衡路460號",
    "phone": "(07)7767676",
    "latitude": "22.640794",
    "longtitude": "120.351451"
  },
  {
    "id": "3542013984",
    "name": "陳柏蒼耳鼻喉科診所",
    "area": "64000120",
    "address": "高雄市鳳山區文衡路480號",
    "phone": "(07)7775388",
    "latitude": "22.641076",
    "longtitude": "120.35029"
  },
  {
    "id": "3542014016",
    "name": "吳外科骨科診所",
    "area": "64000120",
    "address": "高雄市鳳山區中山西路102-9號",
    "phone": "(07)7465265",
    "latitude": "22.627032",
    "longtitude": "120.352544"
  },
  {
    "id": "3542014098",
    "name": "陳重志聯合診所",
    "area": "64000120",
    "address": "高雄市鳳山區光復路一段139號",
    "phone": "(07)7427329",
    "latitude": "22.629114",
    "longtitude": "120.350668"
  },
  {
    "id": "3542014392",
    "name": "新華田內科診所",
    "area": "64000120",
    "address": "高雄市鳳山區曹公路16-4號",
    "phone": "(07)7999128",
    "latitude": "22.628929",
    "longtitude": "120.357278"
  },
  {
    "id": "3542014445",
    "name": "聖光診所",
    "area": "64000120",
    "address": "高雄市鳳山區中山東路159號",
    "phone": "(07)7411789",
    "latitude": "22.6234",
    "longtitude": "120.368049"
  },
  {
    "id": "3542014463",
    "name": "佳醫診所",
    "area": "64000120",
    "address": "高雄市鳳山區五甲二路357號",
    "phone": "(07)7219191",
    "latitude": "22.598019",
    "longtitude": "120.336301"
  },
  {
    "id": "3542014516",
    "name": "芳鄰小兒科",
    "area": "64000120",
    "address": "高雄市鳳山區五甲二路352-1號",
    "phone": "(07)7277988",
    "latitude": "22.599407",
    "longtitude": "120.337431"
  },
  {
    "id": "3542014525",
    "name": "元富診所",
    "area": "64000120",
    "address": "高雄市鳳山區新富路237號",
    "phone": "(07)7638666",
    "latitude": "22.612956",
    "longtitude": "120.33883"
  },
  {
    "id": "3542014623",
    "name": "長新診所",
    "area": "64000120",
    "address": "高雄市鳳山區大東一路137號",
    "phone": "(07)7196633",
    "latitude": "22.621611",
    "longtitude": "120.361038"
  },
  {
    "id": "3542014785",
    "name": "新石津診所",
    "area": "64000120",
    "address": "高雄市鳳山區自強二路112號",
    "phone": "(07)7682288",
    "latitude": "22.5959",
    "longtitude": "120.327626"
  },
  {
    "id": "3542014954",
    "name": "林昭哲診所",
    "area": "64000120",
    "address": "高雄市鳳山區新富路282號1樓",
    "phone": "(07)7633399",
    "latitude": "22.612662",
    "longtitude": "120.341685"
  },
  {
    "id": "3542015068",
    "name": "誠愛診所",
    "area": "64000120",
    "address": "高雄市鳳山區誠愛路1號",
    "phone": "(07)7556008",
    "latitude": "22.608811",
    "longtitude": "120.358804"
  },
  {
    "id": "3542020069",
    "name": "翁仁茂診所",
    "area": "64000190",
    "address": "高雄市岡山區公園西路三段123號",
    "phone": "(07)6260039",
    "latitude": "22.793282",
    "longtitude": "120.284745"
  },
  {
    "id": "3542020130",
    "name": "黃耳鼻喉科診所",
    "area": "64000190",
    "address": "高雄市岡山區岡山路347-1號",
    "phone": "(07)6230011",
    "latitude": "22.7976332",
    "longtitude": "120.2930181"
  },
  {
    "id": "3542020201",
    "name": "盧榮福內兒科診所",
    "area": "64000190",
    "address": "高雄市岡山區仁壽路39號",
    "phone": "(07)6261515",
    "latitude": "22.792624",
    "longtitude": "120.2874758"
  },
  {
    "id": "3542020309",
    "name": "劉志廷家庭醫學科診所",
    "area": "64000190",
    "address": "高雄市岡山區維新路51號",
    "phone": "(07)6228617",
    "latitude": "22.793187",
    "longtitude": "120.294463"
  },
  {
    "id": "3542020345",
    "name": "陳振忠內兒科診所",
    "area": "64000190",
    "address": "高雄市岡山區壽天路37-2號",
    "phone": "(07)6213202",
    "latitude": "22.7964334",
    "longtitude": "120.2911964"
  },
  {
    "id": "3542020363",
    "name": "翁明清婦產科診所",
    "area": "64000190",
    "address": "高雄市岡山區前峰路73號",
    "phone": "(07)6262997",
    "latitude": "22.795735",
    "longtitude": "120.286924"
  },
  {
    "id": "3542020434",
    "name": "王宏育診所",
    "area": "64000190",
    "address": "高雄市岡山區岡山路260號",
    "phone": "(07)6228972",
    "latitude": "22.792539",
    "longtitude": "120.296174"
  },
  {
    "id": "3542020461",
    "name": "得安診所",
    "area": "64000190",
    "address": "高雄市岡山區前峰路41號",
    "phone": "(07)6258387",
    "latitude": "22.7951247",
    "longtitude": "120.2856682"
  },
  {
    "id": "3542020498",
    "name": "鄧明壽診所",
    "area": "64000190",
    "address": "高雄市岡山區壽華路36號",
    "phone": "(07)6233316",
    "latitude": "22.79778",
    "longtitude": "120.293198"
  },
  {
    "id": "3542020532",
    "name": "蔣榮福診所",
    "area": "64000190",
    "address": "高雄市岡山區中山南路452號",
    "phone": "(07)6228719",
    "latitude": "22.790309",
    "longtitude": "120.299558"
  },
  {
    "id": "3542020596",
    "name": "皇明診所",
    "area": "64000190",
    "address": "高雄市岡山區公園西路三段86-1號",
    "phone": "(07)6263592",
    "latitude": "22.7945979",
    "longtitude": "120.2822156"
  },
  {
    "id": "3542020676",
    "name": "黃子育診所",
    "area": "64000190",
    "address": "高雄市岡山區前峰路39號",
    "phone": "(07)6270101",
    "latitude": "22.794697",
    "longtitude": "120.288569"
  },
  {
    "id": "3542020729",
    "name": "振華診所",
    "area": "64000190",
    "address": "高雄市岡山區公園西路二段111號",
    "phone": "(07)6268916",
    "latitude": "22.797515",
    "longtitude": "120.286879"
  },
  {
    "id": "3542020738",
    "name": "吳宗慶診所",
    "area": "64000190",
    "address": "高雄市岡山區中山北路47號",
    "phone": "(07)6229868",
    "latitude": "22.793821",
    "longtitude": "120.298665"
  },
  {
    "id": "3542021986",
    "name": "新博愛診所",
    "area": "64000190",
    "address": "高雄市岡山區大德一路15號",
    "phone": "(07)6215799",
    "latitude": "22.79665",
    "longtitude": "120.29732"
  },
  {
    "id": "3542022054",
    "name": "蘇俊明小兒科診所",
    "area": "64000190",
    "address": "高雄市岡山區平和路200號",
    "phone": "(07)6223189",
    "latitude": "22.79546",
    "longtitude": "120.291948"
  },
  {
    "id": "3542022143",
    "name": "安泰診所",
    "area": "64000190",
    "address": "高雄市岡山區岡山路434號4樓5B",
    "phone": "(07)6233500",
    "latitude": "22.796053",
    "longtitude": "120.295899"
  },
  {
    "id": "3542022205",
    "name": "莊志明診所",
    "area": "64000190",
    "address": "高雄市岡山區柳橋東路15-1號1樓",
    "phone": "(07)6298388",
    "latitude": "22.790752",
    "longtitude": "120.294562"
  },
  {
    "id": "3542022214",
    "name": "楊禮瑜診所",
    "area": "64000190",
    "address": "高雄市岡山區柳橋東路30號",
    "phone": "(07)6233598",
    "latitude": "22.791165",
    "longtitude": "120.29531"
  },
  {
    "id": "3542022223",
    "name": "岡山內科診所",
    "area": "64000190",
    "address": "高雄市岡山區岡山路148號",
    "phone": "(07)6213371",
    "latitude": "22.789367",
    "longtitude": "120.296588"
  },
  {
    "id": "3542022250",
    "name": "陳國俊小兒科診所",
    "area": "64000190",
    "address": "高雄市岡山區岡山路73號",
    "phone": "(07)6297200",
    "latitude": "22.7915943",
    "longtitude": "120.2938866"
  },
  {
    "id": "3542022269",
    "name": "仁康診所",
    "area": "64000190",
    "address": "高雄市岡山區介壽西路173號",
    "phone": "(07)6262988",
    "latitude": "22.784069",
    "longtitude": "120.280358"
  },
  {
    "id": "3542022303",
    "name": "黃仲達診所",
    "area": "64000190",
    "address": "高雄市岡山區柳橋東路9-2號1樓",
    "phone": "(07)6297898",
    "latitude": "22.790766",
    "longtitude": "120.294885"
  },
  {
    "id": "3542030556",
    "name": "仁厚診所",
    "area": "64000300",
    "address": "高雄市旗山區延平一路137號",
    "phone": "(07)6613515",
    "latitude": "22.897643",
    "longtitude": "120.483671"
  },
  {
    "id": "3542031615",
    "name": "鴻源診所",
    "area": "64000300",
    "address": "高雄市旗山區延平一路200號",
    "phone": "(07)6628788",
    "latitude": "22.895998",
    "longtitude": "120.483201"
  },
  {
    "id": "3542031704",
    "name": "信安小兒科診所",
    "area": "64000300",
    "address": "高雄市旗山區延平一路228號之8",
    "phone": "(07)6627007",
    "latitude": "22.894953",
    "longtitude": "120.483169"
  },
  {
    "id": "3542031722",
    "name": "芳民診所",
    "area": "64000300",
    "address": "高雄市旗山區德昌路16號",
    "phone": "(07)6622355",
    "latitude": "22.883229",
    "longtitude": "120.482513"
  },
  {
    "id": "3542031731",
    "name": "王致瑋小兒科診所",
    "area": "64000300",
    "address": "高雄市旗山區新山里延平一路485號1樓",
    "phone": "(07)6629922",
    "latitude": "22.889367",
    "longtitude": "120.483455"
  },
  {
    "id": "3542040123",
    "name": "吳文禮診所",
    "area": "64000310",
    "address": "高雄市美濃區中正路一段41號",
    "phone": "(07)6812072",
    "latitude": "22.900541",
    "longtitude": "120.541867"
  },
  {
    "id": "3542040187",
    "name": "李樹榮診所",
    "area": "64000310",
    "address": "高雄市美濃區中正路一段17號",
    "phone": "(07)6812189",
    "latitude": "22.901529",
    "longtitude": "120.541768"
  },
  {
    "id": "3542050361",
    "name": "黃英豪診所",
    "area": "64000130",
    "address": "高雄市林園區林園北路188號",
    "phone": "(07)6412134",
    "latitude": "22.50769",
    "longtitude": "120.395046"
  },
  {
    "id": "3542051920",
    "name": "長泰診所",
    "area": "64000130",
    "address": "高雄市林園區王公路483號",
    "phone": "(07)6452776",
    "latitude": "22.505515",
    "longtitude": "120.385174"
  },
  {
    "id": "3542052025",
    "name": "聯合王婦產科",
    "area": "64000130",
    "address": "高雄市林園區沿海路三段148號",
    "phone": "(07)6425968",
    "latitude": "22.500114",
    "longtitude": "120.388822"
  },
  {
    "id": "3542052034",
    "name": "建芳診所",
    "area": "64000130",
    "address": "高雄市林園區東林西路28號",
    "phone": "(07)6467666",
    "latitude": "22.503918",
    "longtitude": "120.3949"
  },
  {
    "id": "3542052043",
    "name": "川宏診所",
    "area": "64000130",
    "address": "高雄市林園區鳳林路一段83號1樓",
    "phone": "(07)6452520",
    "latitude": "22.503538",
    "longtitude": "120.397904"
  },
  {
    "id": "3542060125",
    "name": "太樹診所",
    "area": "64000140",
    "address": "高雄市大寮區義和里九和路9號",
    "phone": "(07)6518042",
    "latitude": "22.642602",
    "longtitude": "120.418506"
  },
  {
    "id": "3542060714",
    "name": "親親家庭診所",
    "area": "64000140",
    "address": "高雄市大寮區中庄里鳳屏一路538號",
    "phone": "(07)7013483",
    "latitude": "22.636862",
    "longtitude": "120.394065"
  },
  {
    "id": "3542060830",
    "name": "健聖診所",
    "area": "64000140",
    "address": "高雄市大寮區中興里中正路2號",
    "phone": "(07)7861303",
    "latitude": "22.617297",
    "longtitude": "120.385438"
  },
  {
    "id": "3542060901",
    "name": "郭其靈診所",
    "area": "64000140",
    "address": "高雄市大寮區永芳村鳳林三路541號",
    "phone": "(07)7823335",
    "latitude": "22.607652",
    "longtitude": "120.395164"
  },
  {
    "id": "3542061917",
    "name": "鳳信診所",
    "area": "64000140",
    "address": "高雄市大寮區中庄里鳳屏一路574號",
    "phone": "(07)7036751",
    "latitude": "22.637299",
    "longtitude": "120.394868"
  },
  {
    "id": "3542061944",
    "name": "張文豪診所",
    "area": "64000140",
    "address": "高雄市大寮區山頂里內厝路201號",
    "phone": "(07)7816276",
    "latitude": "22.608054",
    "longtitude": "120.389953"
  },
  {
    "id": "3542061953",
    "name": "張桐榮診所",
    "area": "64000140",
    "address": "高雄市大寮區永芳村鳳林三路573、575號",
    "phone": "(07)7825382",
    "latitude": "22.608325",
    "longtitude": "120.394732"
  },
  {
    "id": "3542062094",
    "name": "大統內兒科診所",
    "area": "64000140",
    "address": "高雄市大寮區鳳林四路56號",
    "phone": "(07)7836127",
    "latitude": "22.615085",
    "longtitude": "120.387907"
  },
  {
    "id": "3542062147",
    "name": "嘉德耳鼻喉科診所",
    "area": "64000140",
    "address": "高雄市大寮區鳳屏一路441、443號",
    "phone": "(07)7022626",
    "latitude": "22.6379943",
    "longtitude": "120.3933781"
  },
  {
    "id": "3542062156",
    "name": "圓明診所",
    "area": "64000140",
    "address": "高雄市大寮區義仁里鳳林一路147號",
    "phone": "(07)6433298",
    "latitude": "22.541789",
    "longtitude": "120.404208"
  },
  {
    "id": "3542062279",
    "name": "幸安診所",
    "area": "64000140",
    "address": "高雄市大寮區永芳里鳳林三路526號",
    "phone": "(07)7812855",
    "latitude": "22.606435",
    "longtitude": "120.395468"
  },
  {
    "id": "3542062307",
    "name": "大承耳鼻喉科診所",
    "area": "64000140",
    "address": "高雄市大寮區鳳屏一路464號",
    "phone": "(07)7013668",
    "latitude": "22.636091",
    "longtitude": "120.39267"
  },
  {
    "id": "3542070167",
    "name": "愛仁診所",
    "area": "64000150",
    "address": "高雄市大樹區久堂路147號",
    "phone": "(07)6524197",
    "latitude": "22.657924",
    "longtitude": "120.41632"
  },
  {
    "id": "3542070210",
    "name": "丰聯診所",
    "area": "64000150",
    "address": "高雄市大樹區建村街87號",
    "phone": "(07)6519312",
    "latitude": "22.6565361",
    "longtitude": "120.4164186"
  },
  {
    "id": "3542071351",
    "name": "大森診所",
    "area": "64000150",
    "address": "高雄市大樹區中興街89號",
    "phone": "(07)6527680",
    "latitude": "22.657109",
    "longtitude": "120.420088"
  },
  {
    "id": "3542080047",
    "name": "劉內兒科診所",
    "area": "64000170",
    "address": "高雄市仁武區仁心路6號.15號",
    "phone": "(07)3718727",
    "latitude": "22.681815",
    "longtitude": "120.355907"
  },
  {
    "id": "3542080083",
    "name": "仁新診所",
    "area": "64000170",
    "address": "高雄市仁武區仁心路56號",
    "phone": "(07)3719825",
    "latitude": "22.682196",
    "longtitude": "120.356761"
  },
  {
    "id": "3542080109",
    "name": "仁里診所",
    "area": "64000170",
    "address": "高雄市仁武區仁樂街202號",
    "phone": "(07)3729603",
    "latitude": "22.703729",
    "longtitude": "120.347802"
  },
  {
    "id": "3542080190",
    "name": "易生診所",
    "area": "64000170",
    "address": "高雄市仁武區中華路306號",
    "phone": "(07)3746901",
    "latitude": "22.70044",
    "longtitude": "120.35291"
  },
  {
    "id": "3542081231",
    "name": "長恩聯合診所",
    "area": "64000170",
    "address": "高雄市仁武區仁忠路83號",
    "phone": "(07)3747975",
    "latitude": "22.677366",
    "longtitude": "120.355785"
  },
  {
    "id": "3542081348",
    "name": "陽光診所",
    "area": "64000170",
    "address": "高雄市仁武區中華路255號",
    "phone": "(07)3755500",
    "latitude": "22.700291",
    "longtitude": "120.351551"
  },
  {
    "id": "3542081464",
    "name": "德應診所",
    "area": "64000170",
    "address": "高雄市仁武區永仁街209號",
    "phone": "(07)3728298",
    "latitude": "22.683495",
    "longtitude": "120.333605"
  },
  {
    "id": "3542090150",
    "name": "富安診所",
    "area": "64000160",
    "address": "高雄市大社區金龍路138號",
    "phone": "(07)3528996",
    "latitude": "22.726886",
    "longtitude": "120.353695"
  },
  {
    "id": "3542090329",
    "name": "王裕郎小兒科診所",
    "area": "64000160",
    "address": "高雄市大社區中山路317號",
    "phone": "(07)3550619",
    "latitude": "22.731781",
    "longtitude": "120.350319"
  },
  {
    "id": "3542100062",
    "name": "劉金龍診所",
    "area": "64000180",
    "address": "高雄市鳥松區學堂路78-5號",
    "phone": "(07)7313935",
    "latitude": "22.658364",
    "longtitude": "120.390332"
  },
  {
    "id": "3542100124",
    "name": "藍偉宏診所",
    "area": "64000180",
    "address": "高雄市鳥松區學堂路105-1號",
    "phone": "(07)7338715",
    "latitude": "22.658334",
    "longtitude": "120.391828"
  },
  {
    "id": "3542101185",
    "name": "聯安診所",
    "area": "64000180",
    "address": "高雄市鳥松區中正路343號",
    "phone": "(07)7335076",
    "latitude": "22.662287",
    "longtitude": "120.363404"
  },
  {
    "id": "3542110326",
    "name": "陳性良診所",
    "area": "64000200",
    "address": "高雄市橋頭區隆豐路220號",
    "phone": "(07)6127655",
    "latitude": "22.753718",
    "longtitude": "120.307144"
  },
  {
    "id": "3542111378",
    "name": "孫琮淵診所",
    "area": "64000200",
    "address": "高雄市橋頭區仕隆里成功南路79號1樓",
    "phone": "(07)6130567",
    "latitude": "22.753911",
    "longtitude": "120.311868"
  },
  {
    "id": "3542111396",
    "name": "正心診所",
    "area": "64000200",
    "address": "高雄市橋頭區隆豐路176號",
    "phone": "(07)6128080",
    "latitude": "22.754451",
    "longtitude": "120.306521"
  },
  {
    "id": "3542120126",
    "name": "簡萬杰診所",
    "area": "64000210",
    "address": "高雄市燕巢區中民路558號",
    "phone": "(07)6166674",
    "latitude": "22.793437",
    "longtitude": "120.363013"
  },
  {
    "id": "3542121345",
    "name": "鳳安診所",
    "area": "64000210",
    "address": "高雄市燕巢區鳳雄里鳳旗路124-2號",
    "phone": "(07)6153827",
    "latitude": "22.754484",
    "longtitude": "120.355635"
  },
  {
    "id": "3542141465",
    "name": "明成親子診所",
    "area": "64000230",
    "address": "高雄市阿蓮區民權路95、97號",
    "phone": "(07)6319789",
    "latitude": "22.8825934",
    "longtitude": "120.3257069"
  },
  {
    "id": "3542151498",
    "name": "祐民診所",
    "area": "64000240",
    "address": "高雄市路竹區中和街180號",
    "phone": "(07)6072211",
    "latitude": "22.858904",
    "longtitude": "120.257629"
  },
  {
    "id": "3542151514",
    "name": "佳恩小兒科診所",
    "area": "64000240",
    "address": "高雄市路竹區大社路135號",
    "phone": "(07)6073355",
    "latitude": "22.864569",
    "longtitude": "120.263233"
  },
  {
    "id": "3542151532",
    "name": "馨美診所",
    "area": "64000240",
    "address": "高雄市路竹區大社路157號",
    "phone": "(07)6074999",
    "latitude": "22.864929",
    "longtitude": "120.263458"
  },
  {
    "id": "3542151587",
    "name": "蘇玉良診所",
    "area": "64000240",
    "address": "高雄市路竹區大同路326號",
    "phone": "(07)6968248",
    "latitude": "22.858511",
    "longtitude": "120.266572"
  },
  {
    "id": "3542151596",
    "name": "蘇進添小兒科診所",
    "area": "64000240",
    "address": "高雄市路竹區中興路236號",
    "phone": "(07)6971769",
    "latitude": "22.862939",
    "longtitude": "120.262155"
  },
  {
    "id": "3542151658",
    "name": "昭欽診所",
    "area": "64000240",
    "address": "高雄市路竹區183-2號",
    "phone": "(07)6953055",
    "latitude": "22.8675759",
    "longtitude": "120.2849523"
  },
  {
    "id": "3542151676",
    "name": "仁澤診所",
    "area": "64000240",
    "address": "高雄市路竹區國昌路331號",
    "phone": "(07)6076000",
    "latitude": "22.861698",
    "longtitude": "120.255696"
  },
  {
    "id": "3542160184",
    "name": "永健診所",
    "area": "64000250",
    "address": "高雄市湖內區太爺村中正路一段30號",
    "phone": "(07)6993870",
    "latitude": "22.909654",
    "longtitude": "120.226193"
  },
  {
    "id": "3542160264",
    "name": "方舟診所",
    "area": "64000250",
    "address": "高雄市湖內區民權路158號",
    "phone": "(07)6935692",
    "latitude": "22.891082",
    "longtitude": "120.24334"
  },
  {
    "id": "3542161449",
    "name": "富田森林診所",
    "area": "64000250",
    "address": "高雄市湖內區中正路一段59號",
    "phone": "(07)6992189",
    "latitude": "22.909627",
    "longtitude": "120.225739"
  },
  {
    "id": "3542170037",
    "name": "顏診所",
    "area": "64000260",
    "address": "高雄市茄萣區茄萣路一段151號",
    "phone": "(07)6901481",
    "latitude": "22.891353",
    "longtitude": "120.184787"
  },
  {
    "id": "3542170233",
    "name": "施明火診所",
    "area": "64000260",
    "address": "高雄市茄萣區茄萣路一段399號",
    "phone": "(07)6900953",
    "latitude": "22.897012",
    "longtitude": "120.184139"
  },
  {
    "id": "3542170251",
    "name": "忠信診所",
    "area": "64000260",
    "address": "高雄市茄萣區嘉賜里仁愛路三段218號",
    "phone": "(07)6901221",
    "latitude": "22.903287",
    "longtitude": "120.183848"
  },
  {
    "id": "3542171329",
    "name": "友安小兒科診所",
    "area": "64000260",
    "address": "高雄市茄萣區仁愛路二段80、82號",
    "phone": "(07)6906933",
    "latitude": "22.897882",
    "longtitude": "120.184699"
  },
  {
    "id": "3542171338",
    "name": "吳南寬診所",
    "area": "64000260",
    "address": "高雄市茄萣區白砂路257號1樓",
    "phone": "(07)6921275",
    "latitude": "22.913516",
    "longtitude": "120.185132"
  },
  {
    "id": "3542191125",
    "name": "平安診所",
    "area": "64000280",
    "address": "高雄市彌陀區中正路233-1號",
    "phone": "(07)6191116",
    "latitude": "22.784909",
    "longtitude": "120.247488"
  },
  {
    "id": "3542200272",
    "name": "蔡政達診所",
    "area": "64000290",
    "address": "高雄市梓官區廣澤路20號",
    "phone": "(07)6173295",
    "latitude": "22.729493",
    "longtitude": "120.255047"
  },
  {
    "id": "3542201466",
    "name": "梓安診所",
    "area": "64000290",
    "address": "高雄市梓官區中正路71號",
    "phone": "(07)6177429",
    "latitude": "22.731857",
    "longtitude": "120.253486"
  },
  {
    "id": "3542211257",
    "name": "大嘉診所",
    "area": "64000320",
    "address": "高雄市六龜區太平路114號",
    "phone": "(07)6895789",
    "latitude": "22.995201",
    "longtitude": "120.637516"
  },
  {
    "id": "4107320010",
    "name": "和平醫療社團法人進興診所",
    "area": "64000050",
    "address": "高雄市三民區九如一路171號",
    "phone": "(07)3869559",
    "latitude": "22.636812",
    "longtitude": "120.339359"
  }
]